{
"type": "FeatureCollection",
"crs": { "type": "name", "properties": { "name": "urn:ogc:def:crs:OGC:1.3:CRS84" } },
                                                                                
"features": [
{ "type": "Feature", "properties": { "Name": "UPPER HUTT", "Description": "<img src=\"http:\/\/chart.apis.google.com\/chart?chst=d_bubble_text_small&chld=bbT|1800|FFFFFF|000000\" alt=\"1800\"\/>" }, "geometry": { "type": "Point", "coordinates": [ 175.047683, -41.1300567, 0.0 ] } },
{ "type": "Feature", "properties": { "Name": "TUTARA", "Description": "<img src=\"http:\/\/chart.apis.google.com\/chart?chst=d_bubble_text_small&chld=bbT|900|FFFFFF|000000\" alt=\"900\"\/>" }, "geometry": { "type": "Point", "coordinates": [ 178.35864620000001, -37.8065799, 0.0 ] } },
{ "type": "Feature", "properties": { "Name": "DARGAVILLE", "Description": "<img src=\"http:\/\/chart.apis.google.com\/chart?chst=d_bubble_text_small&chld=bbT|900|FFFFFF|000000\" alt=\"900\"\/>" }, "geometry": { "type": "Point", "coordinates": [ 173.861280099999988, -35.9577338, 0.0 ] } },
{ "type": "Feature", "properties": { "Name": "TAPUAE", "Description": "<img src=\"http:\/\/chart.apis.google.com\/chart?chst=d_bubble_text_small&chld=bbT|1800|FFFFFF|000000\" alt=\"1800\"\/>" }, "geometry": { "type": "Point", "coordinates": [ 175.7243216, -39.9934838, 0.0 ] } },
{ "type": "Feature", "properties": { "Name": "BEEHIVE", "Description": "<img src=\"http:\/\/chart.apis.google.com\/chart?chst=d_bubble_text_small&chld=bbT|900|FFFFFF|000000\" alt=\"900\"\/>" }, "geometry": { "type": "Point", "coordinates": [ 174.775303900000011, -41.2786656, 0.0 ] } },
{ "type": "Feature", "properties": { "Name": "WELLINGTON RADIO", "Description": "<img src=\"http:\/\/chart.apis.google.com\/chart?chst=d_bubble_text_small&chld=bbT|1800|FFFFFF|000000\" alt=\"1800\"\/>" }, "geometry": { "type": "Point", "coordinates": [ 174.764370500000012, -41.2716273, 0.0 ] } },
{ "type": "Feature", "properties": { "Name": "THE TERRACE", "Description": "<img src=\"http:\/\/chart.apis.google.com\/chart?chst=d_bubble_text_small&chld=bbT|2100|FFFFFF|000000\" alt=\"2100\"\/>" }, "geometry": { "type": "Point", "coordinates": [ 174.7741833, -41.2813847, 0.0 ] } },
{ "type": "Feature", "properties": { "Name": "RANGITUMAU", "Description": "<img src=\"http:\/\/chart.apis.google.com\/chart?chst=d_bubble_text_small&chld=bbT|1800|FFFFFF|000000\" alt=\"1800\"\/>" }, "geometry": { "type": "Point", "coordinates": [ 175.7354163, -40.8492037, 0.0 ] } },
{ "type": "Feature", "properties": { "Name": "ISLINGTON", "Description": "<img src=\"http:\/\/chart.apis.google.com\/chart?chst=d_bubble_text_small&chld=bbT|1800|FFFFFF|000000\" alt=\"1800\"\/>" }, "geometry": { "type": "Point", "coordinates": [ 172.5123854, -43.537413, 0.0 ] } },
{ "type": "Feature", "properties": { "Name": "OHOPE BEACH", "Description": "<img src=\"http:\/\/chart.apis.google.com\/chart?chst=d_bubble_text_small&chld=bbT|900|FFFFFF|000000\" alt=\"900\"\/>" }, "geometry": { "type": "Point", "coordinates": [ 177.023429, -37.9617518, 0.0 ] } },
{ "type": "Feature", "properties": { "Name": "MT MURCHISON", "Description": "<img src=\"http:\/\/chart.apis.google.com\/chart?chst=d_bubble_text_small&chld=bbT|900|FFFFFF|000000\" alt=\"900\"\/>" }, "geometry": { "type": "Point", "coordinates": [ 172.4988873, -41.7296288, 0.0 ] } },
{ "type": "Feature", "properties": { "Name": "STOKE", "Description": "<img src=\"http:\/\/chart.apis.google.com\/chart?chst=d_bubble_text_small&chld=bbT|2100|FFFFFF|000000\" alt=\"2100\"\/>" }, "geometry": { "type": "Point", "coordinates": [ 173.234521300000011, -41.31204, 0.0 ] } },
{ "type": "Feature", "properties": { "Name": "BOMBAY REPEATER", "Description": "<img src=\"http:\/\/chart.apis.google.com\/chart?chst=d_bubble_text_small&chld=bbT|1800|FFFFFF|000000\" alt=\"1800\"\/>" }, "geometry": { "type": "Point", "coordinates": [ 175.0012104, -37.184882, 0.0 ] } },
{ "type": "Feature", "properties": { "Name": "MEREMERE", "Description": "<img src=\"http:\/\/chart.apis.google.com\/chart?chst=d_bubble_text_small&chld=bbT|900|FFFFFF|000000\" alt=\"900\"\/>" }, "geometry": { "type": "Point", "coordinates": [ 175.0417673, -37.3004052, 0.0 ] } },
{ "type": "Feature", "properties": { "Name": "HOBSONVILLE", "Description": "<img src=\"http:\/\/chart.apis.google.com\/chart?chst=d_bubble_text_small&chld=bbT|1800|FFFFFF|000000\" alt=\"1800\"\/>" }, "geometry": { "type": "Point", "coordinates": [ 174.6615861, -36.790471, 0.0 ] } },
{ "type": "Feature", "properties": { "Name": "AUCKLAND AIRPORT", "Description": "<img src=\"http:\/\/chart.apis.google.com\/chart?chst=d_bubble_text_small&chld=bbT|900|FFFFFF|000000\" alt=\"900\"\/><img src=\"http:\/\/chart.apis.google.com\/chart?chst=d_bubble_text_small&chld=bbT|1800|FFFFFF|000000\" alt=\"1800\"\/><img src=\"http:\/\/chart.apis.google.com\/chart?chst=d_bubble_text_small&chld=bbT|2100|FFFFFF|000000\" alt=\"2100\"\/>" }, "geometry": { "type": "Point", "coordinates": [ 174.790315099999987, -37.002001, 0.0 ] } },
{ "type": "Feature", "properties": { "Name": "CHARTWELL SQUARE", "Description": "<img src=\"http:\/\/chart.apis.google.com\/chart?chst=d_bubble_text_small&chld=bbT|900|FFFFFF|000000\" alt=\"900\"\/>" }, "geometry": { "type": "Point", "coordinates": [ 175.2786753, -37.7509503, 0.0 ] } },
{ "type": "Feature", "properties": { "Name": "DUNEDIN", "Description": "<img src=\"http:\/\/chart.apis.google.com\/chart?chst=d_bubble_text_small&chld=bbT|2100|FFFFFF|000000\" alt=\"2100\"\/>" }, "geometry": { "type": "Point", "coordinates": [ 170.5042243, -45.8737417, 0.0 ] } },
{ "type": "Feature", "properties": { "Name": "WHANGAEHU", "Description": "<img src=\"http:\/\/chart.apis.google.com\/chart?chst=d_bubble_text_small&chld=bbT|900|FFFFFF|000000\" alt=\"900\"\/>" }, "geometry": { "type": "Point", "coordinates": [ 175.1899928, -40.0265586, 0.0 ] } },
{ "type": "Feature", "properties": { "Name": "BISHOPDALE", "Description": "<img src=\"http:\/\/chart.apis.google.com\/chart?chst=d_bubble_text_small&chld=bbT|2100|FFFFFF|000000\" alt=\"2100\"\/>" }, "geometry": { "type": "Point", "coordinates": [ 172.599203100000011, -43.505345, 0.0 ] } },
{ "type": "Feature", "properties": { "Name": "ISLINGTON", "Description": "<img src=\"http:\/\/chart.apis.google.com\/chart?chst=d_bubble_text_small&chld=bbT|1800|FFFFFF|000000\" alt=\"1800\"\/>" }, "geometry": { "type": "Point", "coordinates": [ 172.5111349, -43.5383091, 0.0 ] } },
{ "type": "Feature", "properties": { "Name": "DARFIELD", "Description": "<img src=\"http:\/\/chart.apis.google.com\/chart?chst=d_bubble_text_small&chld=bbT|900|FFFFFF|000000\" alt=\"900\"\/>" }, "geometry": { "type": "Point", "coordinates": [ 172.11836, -43.4909613, 0.0 ] } },
{ "type": "Feature", "properties": { "Name": "PRICE WATERHOUSE BUILDING", "Description": "<img src=\"http:\/\/chart.apis.google.com\/chart?chst=d_bubble_text_small&chld=bbT|900|FFFFFF|000000\" alt=\"900\"\/>" }, "geometry": { "type": "Point", "coordinates": [ 172.6373972, -43.5288738, 0.0 ] } },
{ "type": "Feature", "properties": { "Name": "GORDONTON", "Description": "<img src=\"http:\/\/chart.apis.google.com\/chart?chst=d_bubble_text_small&chld=bbT|900|FFFFFF|000000\" alt=\"900\"\/>" }, "geometry": { "type": "Point", "coordinates": [ 175.2810352, -37.6841978, 0.0 ] } },
{ "type": "Feature", "properties": { "Name": "MANGAWHAI", "Description": "<img src=\"http:\/\/chart.apis.google.com\/chart?chst=d_bubble_text_small&chld=bbT|900|FFFFFF|000000\" alt=\"900\"\/>" }, "geometry": { "type": "Point", "coordinates": [ 174.5643169, -36.0664229, 0.0 ] } },
{ "type": "Feature", "properties": { "Name": "TAIHAPE", "Description": "<img src=\"http:\/\/chart.apis.google.com\/chart?chst=d_bubble_text_small&chld=bbT|900|FFFFFF|000000\" alt=\"900\"\/>" }, "geometry": { "type": "Point", "coordinates": [ 175.8007843, -39.6879365, 0.0 ] } },
{ "type": "Feature", "properties": { "Name": "HIHITAHI", "Description": "<img src=\"http:\/\/chart.apis.google.com\/chart?chst=d_bubble_text_small&chld=bbT|900|FFFFFF|000000\" alt=\"900\"\/>" }, "geometry": { "type": "Point", "coordinates": [ 175.7140928, -39.5611461, 0.0 ] } },
{ "type": "Feature", "properties": { "Name": "STOKES VALLEY", "Description": "<img src=\"http:\/\/chart.apis.google.com\/chart?chst=d_bubble_text_small&chld=bbT|900|FFFFFF|000000\" alt=\"900\"\/>" }, "geometry": { "type": "Point", "coordinates": [ 174.9741232, -41.1799733, 0.0 ] } },
{ "type": "Feature", "properties": { "Name": "BOMBAY SOUTH", "Description": "<img src=\"http:\/\/chart.apis.google.com\/chart?chst=d_bubble_text_small&chld=bbT|900|FFFFFF|000000\" alt=\"900\"\/>" }, "geometry": { "type": "Point", "coordinates": [ 174.9890368, -37.2319755, 0.0 ] } },
{ "type": "Feature", "properties": { "Name": "WELLINGTON MASSEY UNI (VFNZ)", "Description": "<img src=\"http:\/\/chart.apis.google.com\/chart?chst=d_bubble_text_small&chld=bbT|2100|FFFFFF|000000\" alt=\"2100\"\/>" }, "geometry": { "type": "Point", "coordinates": [ 174.7751666, -41.3028323, 0.0 ] } },
{ "type": "Feature", "properties": { "Name": "TAITA", "Description": "<img src=\"http:\/\/chart.apis.google.com\/chart?chst=d_bubble_text_small&chld=bbT|2100|FFFFFF|000000\" alt=\"2100\"\/>" }, "geometry": { "type": "Point", "coordinates": [ 174.960936, -41.1774952, 0.0 ] } },
{ "type": "Feature", "properties": { "Name": "MT CARGILL", "Description": "<img src=\"http:\/\/chart.apis.google.com\/chart?chst=d_bubble_text_small&chld=bbT|900|FFFFFF|000000\" alt=\"900\"\/>" }, "geometry": { "type": "Point", "coordinates": [ 170.5557335, -45.8127022, 0.0 ] } },
{ "type": "Feature", "properties": { "Name": "MT THREAVE", "Description": "<img src=\"http:\/\/chart.apis.google.com\/chart?chst=d_bubble_text_small&chld=bbT|900|FFFFFF|000000\" alt=\"900\"\/>" }, "geometry": { "type": "Point", "coordinates": [ 176.783118, -39.7517429, 0.0 ] } },
{ "type": "Feature", "properties": { "Name": "NGONGOTAHA", "Description": "<img src=\"http:\/\/chart.apis.google.com\/chart?chst=d_bubble_text_small&chld=bbT|900|FFFFFF|000000\" alt=\"900\"\/>" }, "geometry": { "type": "Point", "coordinates": [ 176.2070502, -38.0933271, 0.0 ] } },
{ "type": "Feature", "properties": { "Name": "IHUMATAO", "Description": "<img src=\"http:\/\/chart.apis.google.com\/chart?chst=d_bubble_text_small&chld=bbT|1800|FFFFFF|000000\" alt=\"1800\"\/>" }, "geometry": { "type": "Point", "coordinates": [ 174.7840247, -36.9759677, 0.0 ] } },
{ "type": "Feature", "properties": { "Name": "WARD", "Description": "<img src=\"http:\/\/chart.apis.google.com\/chart?chst=d_bubble_text_small&chld=bbT|900|FFFFFF|000000\" alt=\"900\"\/>" }, "geometry": { "type": "Point", "coordinates": [ 174.145685500000013, -41.8692408, 0.0 ] } },
{ "type": "Feature", "properties": { "Name": "AUCKLAND HOSPITAL", "Description": "<img src=\"http:\/\/chart.apis.google.com\/chart?chst=d_bubble_text_small&chld=bbT|900|FFFFFF|000000\" alt=\"900\"\/>" }, "geometry": { "type": "Point", "coordinates": [ 174.7698657, -36.8617363, 0.0 ] } },
{ "type": "Feature", "properties": { "Name": "ST JAMES AUCKLAND", "Description": "<img src=\"http:\/\/chart.apis.google.com\/chart?chst=d_bubble_text_small&chld=bbT|1800|FFFFFF|000000\" alt=\"1800\"\/>" }, "geometry": { "type": "Point", "coordinates": [ 174.7640069, -36.8519186, 0.0 ] } },
{ "type": "Feature", "properties": { "Name": "TE AWAMUTU", "Description": "<img src=\"http:\/\/chart.apis.google.com\/chart?chst=d_bubble_text_small&chld=bbT|900|FFFFFF|000000\" alt=\"900\"\/>" }, "geometry": { "type": "Point", "coordinates": [ 175.3197077, -37.9952815, 0.0 ] } },
{ "type": "Feature", "properties": { "Name": "RUSSELL", "Description": "<img src=\"http:\/\/chart.apis.google.com\/chart?chst=d_bubble_text_small&chld=bbT|900|FFFFFF|000000\" alt=\"900\"\/>" }, "geometry": { "type": "Point", "coordinates": [ 174.1230291, -35.2556729, 0.0 ] } },
{ "type": "Feature", "properties": { "Name": "TOKOMARU BAY", "Description": "" }, "geometry": { "type": "Point", "coordinates": [ 178.3121482, -38.1462415, 0.0 ] } },
{ "type": "Feature", "properties": { "Name": "ABBOTS WAY\/GRAND DRIVE", "Description": "<img src=\"http:\/\/chart.apis.google.com\/chart?chst=d_bubble_text_small&chld=bbT|900|FFFFFF|000000\" alt=\"900\"\/>" }, "geometry": { "type": "Point", "coordinates": [ 174.8188329, -36.8897596, 0.0 ] } },
{ "type": "Feature", "properties": { "Name": "AKAROA", "Description": "<img src=\"http:\/\/chart.apis.google.com\/chart?chst=d_bubble_text_small&chld=bbT|900|FFFFFF|000000\" alt=\"900\"\/>" }, "geometry": { "type": "Point", "coordinates": [ 172.865732400000013, -43.7660684, 0.0 ] } },
{ "type": "Feature", "properties": { "Name": "ALBANY NORTH", "Description": "<img src=\"http:\/\/chart.apis.google.com\/chart?chst=d_bubble_text_small&chld=bbT|900|FFFFFF|000000\" alt=\"900\"\/><img src=\"http:\/\/chart.apis.google.com\/chart?chst=d_bubble_text_small&chld=bbT|2100|FFFFFF|000000\" alt=\"2100\"\/>" }, "geometry": { "type": "Point", "coordinates": [ 174.667114, -36.694848, 0.0 ] } },
{ "type": "Feature", "properties": { "Name": "ALBANY-MASSEY", "Description": "<img src=\"http:\/\/chart.apis.google.com\/chart?chst=d_bubble_text_small&chld=bbT|900|FFFFFF|000000\" alt=\"900\"\/>" }, "geometry": { "type": "Point", "coordinates": [ 174.6972209, -36.7358314, 0.0 ] } },
{ "type": "Feature", "properties": { "Name": "ARROWTOWN BASIN", "Description": "<img src=\"http:\/\/chart.apis.google.com\/chart?chst=d_bubble_text_small&chld=bbT|900|FFFFFF|000000\" alt=\"900\"\/>" }, "geometry": { "type": "Point", "coordinates": [ 168.8266329, -44.9913411, 0.0 ] } },
{ "type": "Feature", "properties": { "Name": "ASHBURTON", "Description": "<img src=\"http:\/\/chart.apis.google.com\/chart?chst=d_bubble_text_small&chld=bbT|900|FFFFFF|000000\" alt=\"900\"\/>" }, "geometry": { "type": "Point", "coordinates": [ 171.7777987, -43.887526, 0.0 ] } },
{ "type": "Feature", "properties": { "Name": "ASHCOTT", "Description": "<img src=\"http:\/\/chart.apis.google.com\/chart?chst=d_bubble_text_small&chld=bbT|900|FFFFFF|000000\" alt=\"900\"\/>" }, "geometry": { "type": "Point", "coordinates": [ 176.3430673, -39.9474277, 0.0 ] } },
{ "type": "Feature", "properties": { "Name": "ATHENREE", "Description": "<img src=\"http:\/\/chart.apis.google.com\/chart?chst=d_bubble_text_small&chld=bbT|900|FFFFFF|000000\" alt=\"900\"\/>" }, "geometry": { "type": "Point", "coordinates": [ 175.9429217, -37.4522906, 0.0 ] } },
{ "type": "Feature", "properties": { "Name": "BALCLUTHA (VODAFONE)", "Description": "<img src=\"http:\/\/chart.apis.google.com\/chart?chst=d_bubble_text_small&chld=bbT|900|FFFFFF|000000\" alt=\"900\"\/>" }, "geometry": { "type": "Point", "coordinates": [ 169.7694196, -46.2252531, 0.0 ] } },
{ "type": "Feature", "properties": { "Name": "BELL BLOCK 2", "Description": "<img src=\"http:\/\/chart.apis.google.com\/chart?chst=d_bubble_text_small&chld=bbT|900|FFFFFF|000000\" alt=\"900\"\/>" }, "geometry": { "type": "Point", "coordinates": [ 174.1487043, -39.0418558, 0.0 ] } },
{ "type": "Feature", "properties": { "Name": "BIRCHVILLE", "Description": "<img src=\"http:\/\/chart.apis.google.com\/chart?chst=d_bubble_text_small&chld=bbT|900|FFFFFF|000000\" alt=\"900\"\/>" }, "geometry": { "type": "Point", "coordinates": [ 175.0990985, -41.0985107, 0.0 ] } },
{ "type": "Feature", "properties": { "Name": "BIRKDALE", "Description": "<img src=\"http:\/\/chart.apis.google.com\/chart?chst=d_bubble_text_small&chld=bbT|2100|FFFFFF|000000\" alt=\"2100\"\/>" }, "geometry": { "type": "Point", "coordinates": [ 174.7215161, -36.8120523, 0.0 ] } },
{ "type": "Feature", "properties": { "Name": "BIRKDALE", "Description": "<img src=\"http:\/\/chart.apis.google.com\/chart?chst=d_bubble_text_small&chld=bbT|900|FFFFFF|000000\" alt=\"900\"\/>" }, "geometry": { "type": "Point", "coordinates": [ 174.7237345, -36.8111152, 0.0 ] } },
{ "type": "Feature", "properties": { "Name": "BISHOPDALE", "Description": "<img src=\"http:\/\/chart.apis.google.com\/chart?chst=d_bubble_text_small&chld=bbT|900|FFFFFF|000000\" alt=\"900\"\/>" }, "geometry": { "type": "Point", "coordinates": [ 172.5869535, -43.4881999, 0.0 ] } },
{ "type": "Feature", "properties": { "Name": "BLENHEIM", "Description": "<img src=\"http:\/\/chart.apis.google.com\/chart?chst=d_bubble_text_small&chld=bbT|900|FFFFFF|000000\" alt=\"900\"\/>" }, "geometry": { "type": "Point", "coordinates": [ 173.985393499999986, -41.5456381, 0.0 ] } },
{ "type": "Feature", "properties": { "Name": "BLOCKHOUSE BAY (A2BHB)", "Description": "<img src=\"http:\/\/chart.apis.google.com\/chart?chst=d_bubble_text_small&chld=bbT|900|FFFFFF|000000\" alt=\"900\"\/>" }, "geometry": { "type": "Point", "coordinates": [ 174.7010478, -36.9229687, 0.0 ] } },
{ "type": "Feature", "properties": { "Name": "BLUFF", "Description": "<img src=\"http:\/\/chart.apis.google.com\/chart?chst=d_bubble_text_small&chld=bbT|900|FFFFFF|000000\" alt=\"900\"\/><img src=\"http:\/\/chart.apis.google.com\/chart?chst=d_bubble_text_small&chld=bbT|2100|FFFFFF|000000\" alt=\"2100\"\/>" }, "geometry": { "type": "Point", "coordinates": [ 168.3262402, -46.5899939, 0.0 ] } },
{ "type": "Feature", "properties": { "Name": "BRITOMART", "Description": "<img src=\"http:\/\/chart.apis.google.com\/chart?chst=d_bubble_text_small&chld=bbT|900|FFFFFF|000000\" alt=\"900\"\/>" }, "geometry": { "type": "Point", "coordinates": [ 174.76945090000001, -36.8455196, 0.0 ] } },
{ "type": "Feature", "properties": { "Name": "BRYNDERWYN", "Description": "<img src=\"http:\/\/chart.apis.google.com\/chart?chst=d_bubble_text_small&chld=bbT|900|FFFFFF|000000\" alt=\"900\"\/>" }, "geometry": { "type": "Point", "coordinates": [ 174.4245808, -36.0729408, 0.0 ] } },
{ "type": "Feature", "properties": { "Name": "CAMPBELLS BAY", "Description": "<img src=\"http:\/\/chart.apis.google.com\/chart?chst=d_bubble_text_small&chld=bbT|900|FFFFFF|000000\" alt=\"900\"\/>" }, "geometry": { "type": "Point", "coordinates": [ 174.7456714, -36.7476677, 0.0 ] } },
{ "type": "Feature", "properties": { "Name": "CARISBROOK (VODAFONE)", "Description": "<img src=\"http:\/\/chart.apis.google.com\/chart?chst=d_bubble_text_small&chld=bbT|900|FFFFFF|000000\" alt=\"900\"\/>" }, "geometry": { "type": "Point", "coordinates": [ 170.4917134, -45.895081, 0.0 ] } },
{ "type": "Feature", "properties": { "Name": "CARTERTON", "Description": "<img src=\"http:\/\/chart.apis.google.com\/chart?chst=d_bubble_text_small&chld=bbT|900|FFFFFF|000000\" alt=\"900\"\/>" }, "geometry": { "type": "Point", "coordinates": [ 175.5075529, -40.9732794, 0.0 ] } },
{ "type": "Feature", "properties": { "Name": "CHEVIOT", "Description": "<img src=\"http:\/\/chart.apis.google.com\/chart?chst=d_bubble_text_small&chld=bbT|900|FFFFFF|000000\" alt=\"900\"\/>" }, "geometry": { "type": "Point", "coordinates": [ 173.320189699999986, -42.7999236, 0.0 ] } },
{ "type": "Feature", "properties": { "Name": "CHRISTCHURCH CITY NTH WST", "Description": "<img src=\"http:\/\/chart.apis.google.com\/chart?chst=d_bubble_text_small&chld=bbT|900|FFFFFF|000000\" alt=\"900\"\/>" }, "geometry": { "type": "Point", "coordinates": [ 172.6337024, -43.5261619, 0.0 ] } },
{ "type": "Feature", "properties": { "Name": "CHURTON PARK", "Description": "<img src=\"http:\/\/chart.apis.google.com\/chart?chst=d_bubble_text_small&chld=bbT|900|FFFFFF|000000\" alt=\"900\"\/><img src=\"http:\/\/chart.apis.google.com\/chart?chst=d_bubble_text_small&chld=bbT|2100|FFFFFF|000000\" alt=\"2100\"\/>" }, "geometry": { "type": "Point", "coordinates": [ 174.81611, -41.1996737, 0.0 ] } },
{ "type": "Feature", "properties": { "Name": "CLEVEDON", "Description": "<img src=\"http:\/\/chart.apis.google.com\/chart?chst=d_bubble_text_small&chld=bbT|900|FFFFFF|000000\" alt=\"900\"\/>" }, "geometry": { "type": "Point", "coordinates": [ 175.0562516, -36.9882588, 0.0 ] } },
{ "type": "Feature", "properties": { "Name": "CLYDE", "Description": "<img src=\"http:\/\/chart.apis.google.com\/chart?chst=d_bubble_text_small&chld=bbT|900|FFFFFF|000000\" alt=\"900\"\/>" }, "geometry": { "type": "Point", "coordinates": [ 169.3004134, -45.1893579, 0.0 ] } },
{ "type": "Feature", "properties": { "Name": "COATESVILLE", "Description": "<img src=\"http:\/\/chart.apis.google.com\/chart?chst=d_bubble_text_small&chld=bbT|900|FFFFFF|000000\" alt=\"900\"\/><img src=\"http:\/\/chart.apis.google.com\/chart?chst=d_bubble_text_small&chld=bbT|2100|FFFFFF|000000\" alt=\"2100\"\/>" }, "geometry": { "type": "Point", "coordinates": [ 174.636131299999988, -36.7097505, 0.0 ] } },
{ "type": "Feature", "properties": { "Name": "COOK STRAIT", "Description": "<img src=\"http:\/\/chart.apis.google.com\/chart?chst=d_bubble_text_small&chld=bbT|900|FFFFFF|000000\" alt=\"900\"\/>" }, "geometry": { "type": "Point", "coordinates": [ 174.7029396, -41.3427972, 0.0 ] } },
{ "type": "Feature", "properties": { "Name": "COOPERS BEACH", "Description": "<img src=\"http:\/\/chart.apis.google.com\/chart?chst=d_bubble_text_small&chld=bbT|900|FFFFFF|000000\" alt=\"900\"\/>" }, "geometry": { "type": "Point", "coordinates": [ 173.540974799999987, -34.9554054, 0.0 ] } },
{ "type": "Feature", "properties": { "Name": "COROMANDEL TOWNSHIP", "Description": "<img src=\"http:\/\/chart.apis.google.com\/chart?chst=d_bubble_text_small&chld=bbT|900|FFFFFF|000000\" alt=\"900\"\/>" }, "geometry": { "type": "Point", "coordinates": [ 175.519989900000013, -36.7252496, 0.0 ] } },
{ "type": "Feature", "properties": { "Name": "COURTNEY PLACE", "Description": "<img src=\"http:\/\/chart.apis.google.com\/chart?chst=d_bubble_text_small&chld=bbT|900|FFFFFF|000000\" alt=\"900\"\/>" }, "geometry": { "type": "Point", "coordinates": [ 174.7828538, -41.2929601, 0.0 ] } },
{ "type": "Feature", "properties": { "Name": "CROMWELL", "Description": "<img src=\"http:\/\/chart.apis.google.com\/chart?chst=d_bubble_text_small&chld=bbT|900|FFFFFF|000000\" alt=\"900\"\/>" }, "geometry": { "type": "Point", "coordinates": [ 169.092495500000012, -45.0411341, 0.0 ] } },
{ "type": "Feature", "properties": { "Name": "DANNEVIRKE", "Description": "<img src=\"http:\/\/chart.apis.google.com\/chart?chst=d_bubble_text_small&chld=bbT|900|FFFFFF|000000\" alt=\"900\"\/>" }, "geometry": { "type": "Point", "coordinates": [ 176.0852558, -40.2015553, 0.0 ] } },
{ "type": "Feature", "properties": { "Name": "DINSDALE", "Description": "<img src=\"http:\/\/chart.apis.google.com\/chart?chst=d_bubble_text_small&chld=bbT|900|FFFFFF|000000\" alt=\"900\"\/><img src=\"http:\/\/chart.apis.google.com\/chart?chst=d_bubble_text_small&chld=bbT|2100|FFFFFF|000000\" alt=\"2100\"\/>" }, "geometry": { "type": "Point", "coordinates": [ 175.2323814, -37.7942589, 0.0 ] } },
{ "type": "Feature", "properties": { "Name": "DOWNTOWN", "Description": "<img src=\"http:\/\/chart.apis.google.com\/chart?chst=d_bubble_text_small&chld=bbT|900|FFFFFF|000000\" alt=\"900\"\/><img src=\"http:\/\/chart.apis.google.com\/chart?chst=d_bubble_text_small&chld=bbT|1800|FFFFFF|000000\" alt=\"1800\"\/>" }, "geometry": { "type": "Point", "coordinates": [ 174.766042, -36.8437733, 0.0 ] } },
{ "type": "Feature", "properties": { "Name": "DRURY", "Description": "<img src=\"http:\/\/chart.apis.google.com\/chart?chst=d_bubble_text_small&chld=bbT|900|FFFFFF|000000\" alt=\"900\"\/>" }, "geometry": { "type": "Point", "coordinates": [ 174.9073945, -37.1324897, 0.0 ] } },
{ "type": "Feature", "properties": { "Name": "DUNEDIN AIRPORT", "Description": "<img src=\"http:\/\/chart.apis.google.com\/chart?chst=d_bubble_text_small&chld=bbT|900|FFFFFF|000000\" alt=\"900\"\/>" }, "geometry": { "type": "Point", "coordinates": [ 170.2002984, -45.9237275, 0.0 ] } },
{ "type": "Feature", "properties": { "Name": "EAST EGMONT", "Description": "<img src=\"http:\/\/chart.apis.google.com\/chart?chst=d_bubble_text_small&chld=bbT|900|FFFFFF|000000\" alt=\"900\"\/>" }, "geometry": { "type": "Point", "coordinates": [ 174.1045579, -39.3062753, 0.0 ] } },
{ "type": "Feature", "properties": { "Name": "EASTBOURNE", "Description": "<img src=\"http:\/\/chart.apis.google.com\/chart?chst=d_bubble_text_small&chld=bbT|900|FFFFFF|000000\" alt=\"900\"\/>" }, "geometry": { "type": "Point", "coordinates": [ 174.897389800000013, -41.2893387, 0.0 ] } },
{ "type": "Feature", "properties": { "Name": "EASTBOURNE", "Description": "<img src=\"http:\/\/chart.apis.google.com\/chart?chst=d_bubble_text_small&chld=bbT|2100|FFFFFF|000000\" alt=\"2100\"\/>" }, "geometry": { "type": "Point", "coordinates": [ 174.897389800000013, -41.2893387, 0.0 ] } },
{ "type": "Feature", "properties": { "Name": "EDEN PARK", "Description": "<img src=\"http:\/\/chart.apis.google.com\/chart?chst=d_bubble_text_small&chld=bbT|900|FFFFFF|000000\" alt=\"900\"\/><img src=\"http:\/\/chart.apis.google.com\/chart?chst=d_bubble_text_small&chld=bbT|2100|FFFFFF|000000\" alt=\"2100\"\/>" }, "geometry": { "type": "Point", "coordinates": [ 174.7443281, -36.8720696, 0.0 ] } },
{ "type": "Feature", "properties": { "Name": "EKETAHUNA", "Description": "<img src=\"http:\/\/chart.apis.google.com\/chart?chst=d_bubble_text_small&chld=bbT|900|FFFFFF|000000\" alt=\"900\"\/>" }, "geometry": { "type": "Point", "coordinates": [ 175.700680799999986, -40.6355971, 0.0 ] } },
{ "type": "Feature", "properties": { "Name": "ELLERSLIE", "Description": "<img src=\"http:\/\/chart.apis.google.com\/chart?chst=d_bubble_text_small&chld=bbT|900|FFFFFF|000000\" alt=\"900\"\/>" }, "geometry": { "type": "Point", "coordinates": [ 174.798737499999987, -36.8937032, 0.0 ] } },
{ "type": "Feature", "properties": { "Name": "ELLICE ROAD", "Description": "<img src=\"http:\/\/chart.apis.google.com\/chart?chst=d_bubble_text_small&chld=bbT|900|FFFFFF|000000\" alt=\"900\"\/><img src=\"http:\/\/chart.apis.google.com\/chart?chst=d_bubble_text_small&chld=bbT|2100|FFFFFF|000000\" alt=\"2100\"\/>" }, "geometry": { "type": "Point", "coordinates": [ 174.7338086, -36.7658871, 0.0 ] } },
{ "type": "Feature", "properties": { "Name": "FAIRVIEW DOWNS", "Description": "<img src=\"http:\/\/chart.apis.google.com\/chart?chst=d_bubble_text_small&chld=bbT|900|FFFFFF|000000\" alt=\"900\"\/>" }, "geometry": { "type": "Point", "coordinates": [ 175.3090056, -37.7755615, 0.0 ] } },
{ "type": "Feature", "properties": { "Name": "FEATHERSTON", "Description": "<img src=\"http:\/\/chart.apis.google.com\/chart?chst=d_bubble_text_small&chld=bbT|900|FFFFFF|000000\" alt=\"900\"\/>" }, "geometry": { "type": "Point", "coordinates": [ 175.3161055, -41.106983, 0.0 ] } },
{ "type": "Feature", "properties": { "Name": "FEATHERSTON STREET", "Description": "<img src=\"http:\/\/chart.apis.google.com\/chart?chst=d_bubble_text_small&chld=bbT|900|FFFFFF|000000\" alt=\"900\"\/><img src=\"http:\/\/chart.apis.google.com\/chart?chst=d_bubble_text_small&chld=bbT|2100|FFFFFF|000000\" alt=\"2100\"\/>" }, "geometry": { "type": "Point", "coordinates": [ 174.7766186, -41.2831487, 0.0 ] } },
{ "type": "Feature", "properties": { "Name": "FIELDING", "Description": "<img src=\"http:\/\/chart.apis.google.com\/chart?chst=d_bubble_text_small&chld=bbT|900|FFFFFF|000000\" alt=\"900\"\/>" }, "geometry": { "type": "Point", "coordinates": [ 175.553219, -40.2100737, 0.0 ] } },
{ "type": "Feature", "properties": { "Name": "GISBORNE PORT", "Description": "" }, "geometry": { "type": "Point", "coordinates": [ 178.024304, -38.6653787, 0.0 ] } },
{ "type": "Feature", "properties": { "Name": "GLENBROOK", "Description": "<img src=\"http:\/\/chart.apis.google.com\/chart?chst=d_bubble_text_small&chld=bbT|900|FFFFFF|000000\" alt=\"900\"\/>" }, "geometry": { "type": "Point", "coordinates": [ 174.733443599999987, -37.1985129, 0.0 ] } },
{ "type": "Feature", "properties": { "Name": "GLENDOWIE", "Description": "<img src=\"http:\/\/chart.apis.google.com\/chart?chst=d_bubble_text_small&chld=bbT|900|FFFFFF|000000\" alt=\"900\"\/><img src=\"http:\/\/chart.apis.google.com\/chart?chst=d_bubble_text_small&chld=bbT|1800|FFFFFF|000000\" alt=\"1800\"\/>" }, "geometry": { "type": "Point", "coordinates": [ 174.859584500000011, -36.8611217, 0.0 ] } },
{ "type": "Feature", "properties": { "Name": "GLENFIELD", "Description": "<img src=\"http:\/\/chart.apis.google.com\/chart?chst=d_bubble_text_small&chld=bbT|900|FFFFFF|000000\" alt=\"900\"\/><img src=\"http:\/\/chart.apis.google.com\/chart?chst=d_bubble_text_small&chld=bbT|2100|FFFFFF|000000\" alt=\"2100\"\/>" }, "geometry": { "type": "Point", "coordinates": [ 174.7363198, -36.776662, 0.0 ] } },
{ "type": "Feature", "properties": { "Name": "GLENFIELD WEST", "Description": "<img src=\"http:\/\/chart.apis.google.com\/chart?chst=d_bubble_text_small&chld=bbT|900|FFFFFF|000000\" alt=\"900\"\/>" }, "geometry": { "type": "Point", "coordinates": [ 174.719632499999989, -36.7814385, 0.0 ] } },
{ "type": "Feature", "properties": { "Name": "GORE", "Description": "<img src=\"http:\/\/chart.apis.google.com\/chart?chst=d_bubble_text_small&chld=bbT|900|FFFFFF|000000\" alt=\"900\"\/>" }, "geometry": { "type": "Point", "coordinates": [ 168.9892141, -46.1015861, 0.0 ] } },
{ "type": "Feature", "properties": { "Name": "GRACEFIELD", "Description": "<img src=\"http:\/\/chart.apis.google.com\/chart?chst=d_bubble_text_small&chld=bbT|900|FFFFFF|000000\" alt=\"900\"\/><img src=\"http:\/\/chart.apis.google.com\/chart?chst=d_bubble_text_small&chld=bbT|1800|FFFFFF|000000\" alt=\"1800\"\/>" }, "geometry": { "type": "Point", "coordinates": [ 174.911288500000012, -41.233268, 0.0 ] } },
{ "type": "Feature", "properties": { "Name": "GREAT BARRIER ISLAND", "Description": "<img src=\"http:\/\/chart.apis.google.com\/chart?chst=d_bubble_text_small&chld=bbT|900|FFFFFF|000000\" alt=\"900\"\/>" }, "geometry": { "type": "Point", "coordinates": [ 175.3263473, -36.1823603, 0.0 ] } },
{ "type": "Feature", "properties": { "Name": "GRENADA", "Description": "<img src=\"http:\/\/chart.apis.google.com\/chart?chst=d_bubble_text_small&chld=bbT|900|FFFFFF|000000\" alt=\"900\"\/><img src=\"http:\/\/chart.apis.google.com\/chart?chst=d_bubble_text_small&chld=bbT|2100|FFFFFF|000000\" alt=\"2100\"\/>" }, "geometry": { "type": "Point", "coordinates": [ 174.8311314, -41.182324, 0.0 ] } },
{ "type": "Feature", "properties": { "Name": "GREYMOUTH", "Description": "<img src=\"http:\/\/chart.apis.google.com\/chart?chst=d_bubble_text_small&chld=bbT|900|FFFFFF|000000\" alt=\"900\"\/>" }, "geometry": { "type": "Point", "coordinates": [ 171.2080719, -42.4485312, 0.0 ] } },
{ "type": "Feature", "properties": { "Name": "HAMILTON CENTRAL", "Description": "<img src=\"http:\/\/chart.apis.google.com\/chart?chst=d_bubble_text_small&chld=bbT|900|FFFFFF|000000\" alt=\"900\"\/><img src=\"http:\/\/chart.apis.google.com\/chart?chst=d_bubble_text_small&chld=bbT|1800|FFFFFF|000000\" alt=\"1800\"\/><img src=\"http:\/\/chart.apis.google.com\/chart?chst=d_bubble_text_small&chld=bbT|2100|FFFFFF|000000\" alt=\"2100\"\/>" }, "geometry": { "type": "Point", "coordinates": [ 175.2788669, -37.7832525, 0.0 ] } },
{ "type": "Feature", "properties": { "Name": "HAMILTON SOUTH EAST", "Description": "<img src=\"http:\/\/chart.apis.google.com\/chart?chst=d_bubble_text_small&chld=bbT|900|FFFFFF|000000\" alt=\"900\"\/><img src=\"http:\/\/chart.apis.google.com\/chart?chst=d_bubble_text_small&chld=bbT|2100|FFFFFF|000000\" alt=\"2100\"\/>" }, "geometry": { "type": "Point", "coordinates": [ 175.328394, -37.812114, 0.0 ] } },
{ "type": "Feature", "properties": { "Name": "HANMER SPRINGS", "Description": "<img src=\"http:\/\/chart.apis.google.com\/chart?chst=d_bubble_text_small&chld=bbT|900|FFFFFF|000000\" alt=\"900\"\/>" }, "geometry": { "type": "Point", "coordinates": [ 172.8198588, -42.5148086, 0.0 ] } },
{ "type": "Feature", "properties": { "Name": "HASTINGS", "Description": "<img src=\"http:\/\/chart.apis.google.com\/chart?chst=d_bubble_text_small&chld=bbT|900|FFFFFF|000000\" alt=\"900\"\/><img src=\"http:\/\/chart.apis.google.com\/chart?chst=d_bubble_text_small&chld=bbT|2100|FFFFFF|000000\" alt=\"2100\"\/>" }, "geometry": { "type": "Point", "coordinates": [ 176.8423621, -39.6416045, 0.0 ] } },
{ "type": "Feature", "properties": { "Name": "HAVELOCK", "Description": "<img src=\"http:\/\/chart.apis.google.com\/chart?chst=d_bubble_text_small&chld=bbT|900|FFFFFF|000000\" alt=\"900\"\/>" }, "geometry": { "type": "Point", "coordinates": [ 173.791199299999988, -41.246348, 0.0 ] } },
{ "type": "Feature", "properties": { "Name": "HAVELOCK NORTH", "Description": "<img src=\"http:\/\/chart.apis.google.com\/chart?chst=d_bubble_text_small&chld=bbT|900|FFFFFF|000000\" alt=\"900\"\/>" }, "geometry": { "type": "Point", "coordinates": [ 176.9049317, -39.6962961, 0.0 ] } },
{ "type": "Feature", "properties": { "Name": "HAWERA", "Description": "<img src=\"http:\/\/chart.apis.google.com\/chart?chst=d_bubble_text_small&chld=bbT|900|FFFFFF|000000\" alt=\"900\"\/>" }, "geometry": { "type": "Point", "coordinates": [ 174.2851517, -39.5935247, 0.0 ] } },
{ "type": "Feature", "properties": { "Name": "HENDERSON", "Description": "<img src=\"http:\/\/chart.apis.google.com\/chart?chst=d_bubble_text_small&chld=bbT|900|FFFFFF|000000\" alt=\"900\"\/><img src=\"http:\/\/chart.apis.google.com\/chart?chst=d_bubble_text_small&chld=bbT|1800|FFFFFF|000000\" alt=\"1800\"\/><img src=\"http:\/\/chart.apis.google.com\/chart?chst=d_bubble_text_small&chld=bbT|2100|FFFFFF|000000\" alt=\"2100\"\/>" }, "geometry": { "type": "Point", "coordinates": [ 174.6290182, -36.8820036, 0.0 ] } },
{ "type": "Feature", "properties": { "Name": "HERBERT", "Description": "<img src=\"http:\/\/chart.apis.google.com\/chart?chst=d_bubble_text_small&chld=bbT|900|FFFFFF|000000\" alt=\"900\"\/>" }, "geometry": { "type": "Point", "coordinates": [ 170.786031400000013, -45.2348663, 0.0 ] } },
{ "type": "Feature", "properties": { "Name": "HIGHLAND PARK", "Description": "<img src=\"http:\/\/chart.apis.google.com\/chart?chst=d_bubble_text_small&chld=bbT|900|FFFFFF|000000\" alt=\"900\"\/>" }, "geometry": { "type": "Point", "coordinates": [ 174.9077347, -36.8990377, 0.0 ] } },
{ "type": "Feature", "properties": { "Name": "HIKURANGI", "Description": "<img src=\"http:\/\/chart.apis.google.com\/chart?chst=d_bubble_text_small&chld=bbT|900|FFFFFF|000000\" alt=\"900\"\/><img src=\"http:\/\/chart.apis.google.com\/chart?chst=d_bubble_text_small&chld=bbT|2100|FFFFFF|000000\" alt=\"2100\"\/>" }, "geometry": { "type": "Point", "coordinates": [ 174.2701452, -35.5991055, 0.0 ] } },
{ "type": "Feature", "properties": { "Name": "HOBBY CITY", "Description": "<img src=\"http:\/\/chart.apis.google.com\/chart?chst=d_bubble_text_small&chld=bbT|900|FFFFFF|000000\" alt=\"900\"\/>" }, "geometry": { "type": "Point", "coordinates": [ 174.760506099999986, -36.8465684, 0.0 ] } },
{ "type": "Feature", "properties": { "Name": "HOBSON BAY", "Description": "<img src=\"http:\/\/chart.apis.google.com\/chart?chst=d_bubble_text_small&chld=bbT|900|FFFFFF|000000\" alt=\"900\"\/><img src=\"http:\/\/chart.apis.google.com\/chart?chst=d_bubble_text_small&chld=bbT|2100|FFFFFF|000000\" alt=\"2100\"\/>" }, "geometry": { "type": "Point", "coordinates": [ 174.7988297, -36.8540439, 0.0 ] } },
{ "type": "Feature", "properties": { "Name": "HORNBY", "Description": "<img src=\"http:\/\/chart.apis.google.com\/chart?chst=d_bubble_text_small&chld=bbT|2100|FFFFFF|000000\" alt=\"2100\"\/>" }, "geometry": { "type": "Point", "coordinates": [ 172.527197, -43.5419753, 0.0 ] } },
{ "type": "Feature", "properties": { "Name": "HOWICK", "Description": "<img src=\"http:\/\/chart.apis.google.com\/chart?chst=d_bubble_text_small&chld=bbT|900|FFFFFF|000000\" alt=\"900\"\/>" }, "geometry": { "type": "Point", "coordinates": [ 174.9311909, -36.8950152, 0.0 ] } },
{ "type": "Feature", "properties": { "Name": "HOWICK\/COCKLE BAY", "Description": "<img src=\"http:\/\/chart.apis.google.com\/chart?chst=d_bubble_text_small&chld=bbT|900|FFFFFF|000000\" alt=\"900\"\/>" }, "geometry": { "type": "Point", "coordinates": [ 174.939293, -36.9038835, 0.0 ] } },
{ "type": "Feature", "properties": { "Name": "HUNTERVILLE", "Description": "<img src=\"http:\/\/chart.apis.google.com\/chart?chst=d_bubble_text_small&chld=bbT|900|FFFFFF|000000\" alt=\"900\"\/>" }, "geometry": { "type": "Point", "coordinates": [ 175.5923254, -39.9424718, 0.0 ] } },
{ "type": "Feature", "properties": { "Name": "HUNTLY", "Description": "<img src=\"http:\/\/chart.apis.google.com\/chart?chst=d_bubble_text_small&chld=bbT|900|FFFFFF|000000\" alt=\"900\"\/>" }, "geometry": { "type": "Point", "coordinates": [ 175.150743799999987, -37.5786474, 0.0 ] } },
{ "type": "Feature", "properties": { "Name": "IHUMATAO", "Description": "<img src=\"http:\/\/chart.apis.google.com\/chart?chst=d_bubble_text_small&chld=bbT|900|FFFFFF|000000\" alt=\"900\"\/><img src=\"http:\/\/chart.apis.google.com\/chart?chst=d_bubble_text_small&chld=bbT|2100|FFFFFF|000000\" alt=\"2100\"\/>" }, "geometry": { "type": "Point", "coordinates": [ 174.7817789, -36.976005, 0.0 ] } },
{ "type": "Feature", "properties": { "Name": "INVERCARGILL", "Description": "<img src=\"http:\/\/chart.apis.google.com\/chart?chst=d_bubble_text_small&chld=bbT|2100|FFFFFF|000000\" alt=\"2100\"\/>" }, "geometry": { "type": "Point", "coordinates": [ 168.34333, -46.4140484, 0.0 ] } },
{ "type": "Feature", "properties": { "Name": "ISLAND BAY", "Description": "<img src=\"http:\/\/chart.apis.google.com\/chart?chst=d_bubble_text_small&chld=bbT|900|FFFFFF|000000\" alt=\"900\"\/>" }, "geometry": { "type": "Point", "coordinates": [ 174.7721034, -41.3372568, 0.0 ] } },
{ "type": "Feature", "properties": { "Name": "JERVOIS QUAY", "Description": "<img src=\"http:\/\/chart.apis.google.com\/chart?chst=d_bubble_text_small&chld=bbT|900|FFFFFF|000000\" alt=\"900\"\/><img src=\"http:\/\/chart.apis.google.com\/chart?chst=d_bubble_text_small&chld=bbT|2100|FFFFFF|000000\" alt=\"2100\"\/>" }, "geometry": { "type": "Point", "coordinates": [ 174.775522099999989, -41.2867681, 0.0 ] } },
{ "type": "Feature", "properties": { "Name": "KAIKOHE", "Description": "<img src=\"http:\/\/chart.apis.google.com\/chart?chst=d_bubble_text_small&chld=bbT|900|FFFFFF|000000\" alt=\"900\"\/>" }, "geometry": { "type": "Point", "coordinates": [ 173.8301095, -35.3722325, 0.0 ] } },
{ "type": "Feature", "properties": { "Name": "KAIKOURA", "Description": "<img src=\"http:\/\/chart.apis.google.com\/chart?chst=d_bubble_text_small&chld=bbT|900|FFFFFF|000000\" alt=\"900\"\/>" }, "geometry": { "type": "Point", "coordinates": [ 173.6949894, -42.4202056, 0.0 ] } },
{ "type": "Feature", "properties": { "Name": "KAIWAKA", "Description": "<img src=\"http:\/\/chart.apis.google.com\/chart?chst=d_bubble_text_small&chld=bbT|900|FFFFFF|000000\" alt=\"900\"\/>" }, "geometry": { "type": "Point", "coordinates": [ 174.4425604, -36.1880534, 0.0 ] } },
{ "type": "Feature", "properties": { "Name": "KAIWHARAWHARA", "Description": "<img src=\"http:\/\/chart.apis.google.com\/chart?chst=d_bubble_text_small&chld=bbT|900|FFFFFF|000000\" alt=\"900\"\/>" }, "geometry": { "type": "Point", "coordinates": [ 174.7878945, -41.2586572, 0.0 ] } },
{ "type": "Feature", "properties": { "Name": "KAMO", "Description": "<img src=\"http:\/\/chart.apis.google.com\/chart?chst=d_bubble_text_small&chld=bbT|900|FFFFFF|000000\" alt=\"900\"\/><img src=\"http:\/\/chart.apis.google.com\/chart?chst=d_bubble_text_small&chld=bbT|1800|FFFFFF|000000\" alt=\"1800\"\/>" }, "geometry": { "type": "Point", "coordinates": [ 174.3363745, -35.7118161, 0.0 ] } },
{ "type": "Feature", "properties": { "Name": "KARAPIRO", "Description": "<img src=\"http:\/\/chart.apis.google.com\/chart?chst=d_bubble_text_small&chld=bbT|900|FFFFFF|000000\" alt=\"900\"\/><img src=\"http:\/\/chart.apis.google.com\/chart?chst=d_bubble_text_small&chld=bbT|2100|FFFFFF|000000\" alt=\"2100\"\/>" }, "geometry": { "type": "Point", "coordinates": [ 175.5381859, -37.8634151, 0.0 ] } },
{ "type": "Feature", "properties": { "Name": "KARORI WEST", "Description": "<img src=\"http:\/\/chart.apis.google.com\/chart?chst=d_bubble_text_small&chld=bbT|2100|FFFFFF|000000\" alt=\"2100\"\/>" }, "geometry": { "type": "Point", "coordinates": [ 174.7312182, -41.2820349, 0.0 ] } },
{ "type": "Feature", "properties": { "Name": "KAWAKAWA", "Description": "<img src=\"http:\/\/chart.apis.google.com\/chart?chst=d_bubble_text_small&chld=bbT|900|FFFFFF|000000\" alt=\"900\"\/>" }, "geometry": { "type": "Point", "coordinates": [ 174.038049, -35.3701803, 0.0 ] } },
{ "type": "Feature", "properties": { "Name": "KELSTON", "Description": "<img src=\"http:\/\/chart.apis.google.com\/chart?chst=d_bubble_text_small&chld=bbT|900|FFFFFF|000000\" alt=\"900\"\/><img src=\"http:\/\/chart.apis.google.com\/chart?chst=d_bubble_text_small&chld=bbT|2100|FFFFFF|000000\" alt=\"2100\"\/>" }, "geometry": { "type": "Point", "coordinates": [ 174.663339, -36.9094127, 0.0 ] } },
{ "type": "Feature", "properties": { "Name": "KERIKERI", "Description": "<img src=\"http:\/\/chart.apis.google.com\/chart?chst=d_bubble_text_small&chld=bbT|900|FFFFFF|000000\" alt=\"900\"\/>" }, "geometry": { "type": "Point", "coordinates": [ 173.88298660000001, -35.2203273, 0.0 ] } },
{ "type": "Feature", "properties": { "Name": "KILBIRNIE", "Description": "<img src=\"http:\/\/chart.apis.google.com\/chart?chst=d_bubble_text_small&chld=bbT|900|FFFFFF|000000\" alt=\"900\"\/>" }, "geometry": { "type": "Point", "coordinates": [ 174.7955015, -41.3188837, 0.0 ] } },
{ "type": "Feature", "properties": { "Name": "LAMBTON QUAY", "Description": "<img src=\"http:\/\/chart.apis.google.com\/chart?chst=d_bubble_text_small&chld=bbT|900|FFFFFF|000000\" alt=\"900\"\/>" }, "geometry": { "type": "Point", "coordinates": [ 174.775449400000014, -41.2840673, 0.0 ] } },
{ "type": "Feature", "properties": { "Name": "LEVIN", "Description": "<img src=\"http:\/\/chart.apis.google.com\/chart?chst=d_bubble_text_small&chld=bbT|900|FFFFFF|000000\" alt=\"900\"\/><img src=\"http:\/\/chart.apis.google.com\/chart?chst=d_bubble_text_small&chld=bbT|2100|FFFFFF|000000\" alt=\"2100\"\/>" }, "geometry": { "type": "Point", "coordinates": [ 175.3475724, -40.6496238, 0.0 ] } },
{ "type": "Feature", "properties": { "Name": "LINCOLN UNIVERSITY", "Description": "<img src=\"http:\/\/chart.apis.google.com\/chart?chst=d_bubble_text_small&chld=bbT|900|FFFFFF|000000\" alt=\"900\"\/>" }, "geometry": { "type": "Point", "coordinates": [ 172.463136600000013, -43.6506052, 0.0 ] } },
{ "type": "Feature", "properties": { "Name": "LUMSDEN", "Description": "<img src=\"http:\/\/chart.apis.google.com\/chart?chst=d_bubble_text_small&chld=bbT|900|FFFFFF|000000\" alt=\"900\"\/>" }, "geometry": { "type": "Point", "coordinates": [ 168.336434700000012, -45.8000631, 0.0 ] } },
{ "type": "Feature", "properties": { "Name": "LYTTELTON", "Description": "<img src=\"http:\/\/chart.apis.google.com\/chart?chst=d_bubble_text_small&chld=bbT|900|FFFFFF|000000\" alt=\"900\"\/>" }, "geometry": { "type": "Point", "coordinates": [ 172.714956199999989, -43.6091966, 0.0 ] } },
{ "type": "Feature", "properties": { "Name": "MAJESTIC TOWERS", "Description": "<img src=\"http:\/\/chart.apis.google.com\/chart?chst=d_bubble_text_small&chld=bbT|900|FFFFFF|000000\" alt=\"900\"\/>" }, "geometry": { "type": "Point", "coordinates": [ 174.7743771, -41.288587, 0.0 ] } },
{ "type": "Feature", "properties": { "Name": "MANAKAU STRAIGHTS", "Description": "<img src=\"http:\/\/chart.apis.google.com\/chart?chst=d_bubble_text_small&chld=bbT|900|FFFFFF|000000\" alt=\"900\"\/>" }, "geometry": { "type": "Point", "coordinates": [ 175.166058099999987, -40.7423615, 0.0 ] } },
{ "type": "Feature", "properties": { "Name": "MANOR PARK", "Description": "<img src=\"http:\/\/chart.apis.google.com\/chart?chst=d_bubble_text_small&chld=bbT|900|FFFFFF|000000\" alt=\"900\"\/><img src=\"http:\/\/chart.apis.google.com\/chart?chst=d_bubble_text_small&chld=bbT|2100|FFFFFF|000000\" alt=\"2100\"\/>" }, "geometry": { "type": "Point", "coordinates": [ 174.972287, -41.1583876, 0.0 ] } },
{ "type": "Feature", "properties": { "Name": "MANUKAU (A4MNK)", "Description": "<img src=\"http:\/\/chart.apis.google.com\/chart?chst=d_bubble_text_small&chld=bbT|2100|FFFFFF|000000\" alt=\"2100\"\/>" }, "geometry": { "type": "Point", "coordinates": [ 174.8780103, -36.9910443, 0.0 ] } },
{ "type": "Feature", "properties": { "Name": "MARSDEN POINT", "Description": "<img src=\"http:\/\/chart.apis.google.com\/chart?chst=d_bubble_text_small&chld=bbT|900|FFFFFF|000000\" alt=\"900\"\/>" }, "geometry": { "type": "Point", "coordinates": [ 174.41344, -35.8576896, 0.0 ] } },
{ "type": "Feature", "properties": { "Name": "MARTON", "Description": "<img src=\"http:\/\/chart.apis.google.com\/chart?chst=d_bubble_text_small&chld=bbT|900|FFFFFF|000000\" alt=\"900\"\/>" }, "geometry": { "type": "Point", "coordinates": [ 175.3605264, -40.1105734, 0.0 ] } },
{ "type": "Feature", "properties": { "Name": "MATAMATA", "Description": "<img src=\"http:\/\/chart.apis.google.com\/chart?chst=d_bubble_text_small&chld=bbT|900|FFFFFF|000000\" alt=\"900\"\/>" }, "geometry": { "type": "Point", "coordinates": [ 175.774876400000011, -37.810007, 0.0 ] } },
{ "type": "Feature", "properties": { "Name": "MAUNU", "Description": "<img src=\"http:\/\/chart.apis.google.com\/chart?chst=d_bubble_text_small&chld=bbT|900|FFFFFF|000000\" alt=\"900\"\/><img src=\"http:\/\/chart.apis.google.com\/chart?chst=d_bubble_text_small&chld=bbT|2100|FFFFFF|000000\" alt=\"2100\"\/>" }, "geometry": { "type": "Point", "coordinates": [ 174.2307749, -35.7383928, 0.0 ] } },
{ "type": "Feature", "properties": { "Name": "MEADOWBANK", "Description": "<img src=\"http:\/\/chart.apis.google.com\/chart?chst=d_bubble_text_small&chld=bbT|2100|FFFFFF|000000\" alt=\"2100\"\/>" }, "geometry": { "type": "Point", "coordinates": [ 174.8259726, -36.862599, 0.0 ] } },
{ "type": "Feature", "properties": { "Name": "MILFORD", "Description": "<img src=\"http:\/\/chart.apis.google.com\/chart?chst=d_bubble_text_small&chld=bbT|900|FFFFFF|000000\" alt=\"900\"\/><img src=\"http:\/\/chart.apis.google.com\/chart?chst=d_bubble_text_small&chld=bbT|2100|FFFFFF|000000\" alt=\"2100\"\/>" }, "geometry": { "type": "Point", "coordinates": [ 174.765346599999987, -36.7725813, 0.0 ] } },
{ "type": "Feature", "properties": { "Name": "MINDEN A", "Description": "<img src=\"http:\/\/chart.apis.google.com\/chart?chst=d_bubble_text_small&chld=bbT|900|FFFFFF|000000\" alt=\"900\"\/><img src=\"http:\/\/chart.apis.google.com\/chart?chst=d_bubble_text_small&chld=bbT|1800|FFFFFF|000000\" alt=\"1800\"\/>" }, "geometry": { "type": "Point", "coordinates": [ 176.0467496, -37.7109817, 0.0 ] } },
{ "type": "Feature", "properties": { "Name": "MISSION BAY", "Description": "<img src=\"http:\/\/chart.apis.google.com\/chart?chst=d_bubble_text_small&chld=bbT|900|FFFFFF|000000\" alt=\"900\"\/><img src=\"http:\/\/chart.apis.google.com\/chart?chst=d_bubble_text_small&chld=bbT|2100|FFFFFF|000000\" alt=\"2100\"\/>" }, "geometry": { "type": "Point", "coordinates": [ 174.8301486, -36.8508108, 0.0 ] } },
{ "type": "Feature", "properties": { "Name": "MOORHOUSE AVENUE", "Description": "<img src=\"http:\/\/chart.apis.google.com\/chart?chst=d_bubble_text_small&chld=bbT|900|FFFFFF|000000\" alt=\"900\"\/>" }, "geometry": { "type": "Point", "coordinates": [ 172.634853099999987, -43.5405668, 0.0 ] } },
{ "type": "Feature", "properties": { "Name": "MOTUEKA", "Description": "<img src=\"http:\/\/chart.apis.google.com\/chart?chst=d_bubble_text_small&chld=bbT|900|FFFFFF|000000\" alt=\"900\"\/>" }, "geometry": { "type": "Point", "coordinates": [ 172.8525075, -41.123773, 0.0 ] } },
{ "type": "Feature", "properties": { "Name": "MOTUROA", "Description": "" }, "geometry": { "type": "Point", "coordinates": [ 174.027645400000011, -39.0574739, 0.0 ] } },
{ "type": "Feature", "properties": { "Name": "MOTUTAPU ISLAND", "Description": "<img src=\"http:\/\/chart.apis.google.com\/chart?chst=d_bubble_text_small&chld=bbT|900|FFFFFF|000000\" alt=\"900\"\/><img src=\"http:\/\/chart.apis.google.com\/chart?chst=d_bubble_text_small&chld=bbT|2100|FFFFFF|000000\" alt=\"2100\"\/>" }, "geometry": { "type": "Point", "coordinates": [ 174.9283472, -36.7517516, 0.0 ] } },
{ "type": "Feature", "properties": { "Name": "MT ALBERT", "Description": "<img src=\"http:\/\/chart.apis.google.com\/chart?chst=d_bubble_text_small&chld=bbT|900|FFFFFF|000000\" alt=\"900\"\/><img src=\"http:\/\/chart.apis.google.com\/chart?chst=d_bubble_text_small&chld=bbT|2100|FFFFFF|000000\" alt=\"2100\"\/>" }, "geometry": { "type": "Point", "coordinates": [ 174.7208019, -36.873352, 0.0 ] } },
{ "type": "Feature", "properties": { "Name": "MT BRUCE", "Description": "<img src=\"http:\/\/chart.apis.google.com\/chart?chst=d_bubble_text_small&chld=bbT|900|FFFFFF|000000\" alt=\"900\"\/>" }, "geometry": { "type": "Point", "coordinates": [ 175.6019015, -40.7414718, 0.0 ] } },
{ "type": "Feature", "properties": { "Name": "MT EDEN", "Description": "<img src=\"http:\/\/chart.apis.google.com\/chart?chst=d_bubble_text_small&chld=bbT|900|FFFFFF|000000\" alt=\"900\"\/><img src=\"http:\/\/chart.apis.google.com\/chart?chst=d_bubble_text_small&chld=bbT|2100|FFFFFF|000000\" alt=\"2100\"\/>" }, "geometry": { "type": "Point", "coordinates": [ 174.7614467, -36.8835064, 0.0 ] } },
{ "type": "Feature", "properties": { "Name": "MT HUTT", "Description": "<img src=\"http:\/\/chart.apis.google.com\/chart?chst=d_bubble_text_small&chld=bbT|900|FFFFFF|000000\" alt=\"900\"\/>" }, "geometry": { "type": "Point", "coordinates": [ 171.4913794, -43.5942673, 0.0 ] } },
{ "type": "Feature", "properties": { "Name": "MT WELLINGTON", "Description": "<img src=\"http:\/\/chart.apis.google.com\/chart?chst=d_bubble_text_small&chld=bbT|900|FFFFFF|000000\" alt=\"900\"\/><img src=\"http:\/\/chart.apis.google.com\/chart?chst=d_bubble_text_small&chld=bbT|2100|FFFFFF|000000\" alt=\"2100\"\/>" }, "geometry": { "type": "Point", "coordinates": [ 174.8357762, -36.8939783, 0.0 ] } },
{ "type": "Feature", "properties": { "Name": "MT WELLINGTON INDUSTRIAL", "Description": "<img src=\"http:\/\/chart.apis.google.com\/chart?chst=d_bubble_text_small&chld=bbT|900|FFFFFF|000000\" alt=\"900\"\/><img src=\"http:\/\/chart.apis.google.com\/chart?chst=d_bubble_text_small&chld=bbT|2100|FFFFFF|000000\" alt=\"2100\"\/>" }, "geometry": { "type": "Point", "coordinates": [ 174.856760799999989, -36.9233621, 0.0 ] } },
{ "type": "Feature", "properties": { "Name": "MYSTERY CREEK", "Description": "<img src=\"http:\/\/chart.apis.google.com\/chart?chst=d_bubble_text_small&chld=bbT|900|FFFFFF|000000\" alt=\"900\"\/>" }, "geometry": { "type": "Point", "coordinates": [ 175.3436509, -37.8604694, 0.0 ] } },
{ "type": "Feature", "properties": { "Name": "NAENAE", "Description": "<img src=\"http:\/\/chart.apis.google.com\/chart?chst=d_bubble_text_small&chld=bbT|900|FFFFFF|000000\" alt=\"900\"\/><img src=\"http:\/\/chart.apis.google.com\/chart?chst=d_bubble_text_small&chld=bbT|2100|FFFFFF|000000\" alt=\"2100\"\/>" }, "geometry": { "type": "Point", "coordinates": [ 174.94616, -41.2020634, 0.0 ] } },
{ "type": "Feature", "properties": { "Name": "NAPIER", "Description": "<img src=\"http:\/\/chart.apis.google.com\/chart?chst=d_bubble_text_small&chld=bbT|900|FFFFFF|000000\" alt=\"900\"\/><img src=\"http:\/\/chart.apis.google.com\/chart?chst=d_bubble_text_small&chld=bbT|2100|FFFFFF|000000\" alt=\"2100\"\/>" }, "geometry": { "type": "Point", "coordinates": [ 176.9125248, -39.5013062, 0.0 ] } },
{ "type": "Feature", "properties": { "Name": "NELSON", "Description": "<img src=\"http:\/\/chart.apis.google.com\/chart?chst=d_bubble_text_small&chld=bbT|900|FFFFFF|000000\" alt=\"900\"\/>" }, "geometry": { "type": "Point", "coordinates": [ 173.2795564, -41.2973355, 0.0 ] } },
{ "type": "Feature", "properties": { "Name": "NEW PLYMOUTH", "Description": "<img src=\"http:\/\/chart.apis.google.com\/chart?chst=d_bubble_text_small&chld=bbT|900|FFFFFF|000000\" alt=\"900\"\/><img src=\"http:\/\/chart.apis.google.com\/chart?chst=d_bubble_text_small&chld=bbT|2100|FFFFFF|000000\" alt=\"2100\"\/>" }, "geometry": { "type": "Point", "coordinates": [ 174.070435300000014, -39.0597658, 0.0 ] } },
{ "type": "Feature", "properties": { "Name": "NEWMARKET", "Description": "<img src=\"http:\/\/chart.apis.google.com\/chart?chst=d_bubble_text_small&chld=bbT|2100|FFFFFF|000000\" alt=\"2100\"\/>" }, "geometry": { "type": "Point", "coordinates": [ 174.775679700000012, -36.869752, 0.0 ] } },
{ "type": "Feature", "properties": { "Name": "NEWMARKET SOUTH", "Description": "<img src=\"http:\/\/chart.apis.google.com\/chart?chst=d_bubble_text_small&chld=bbT|900|FFFFFF|000000\" alt=\"900\"\/>" }, "geometry": { "type": "Point", "coordinates": [ 174.7759571, -36.880563, 0.0 ] } },
{ "type": "Feature", "properties": { "Name": "NEWTON", "Description": "<img src=\"http:\/\/chart.apis.google.com\/chart?chst=d_bubble_text_small&chld=bbT|900|FFFFFF|000000\" alt=\"900\"\/><img src=\"http:\/\/chart.apis.google.com\/chart?chst=d_bubble_text_small&chld=bbT|2100|FFFFFF|000000\" alt=\"2100\"\/>" }, "geometry": { "type": "Point", "coordinates": [ 174.7587682, -36.8664257, 0.0 ] } },
{ "type": "Feature", "properties": { "Name": "NEWTOWN", "Description": "<img src=\"http:\/\/chart.apis.google.com\/chart?chst=d_bubble_text_small&chld=bbT|900|FFFFFF|000000\" alt=\"900\"\/>" }, "geometry": { "type": "Point", "coordinates": [ 174.7772496, -41.306556, 0.0 ] } },
{ "type": "Feature", "properties": { "Name": "NGAURANGA EAST", "Description": "<img src=\"http:\/\/chart.apis.google.com\/chart?chst=d_bubble_text_small&chld=bbT|900|FFFFFF|000000\" alt=\"900\"\/>" }, "geometry": { "type": "Point", "coordinates": [ 174.812651499999987, -41.2474641, 0.0 ] } },
{ "type": "Feature", "properties": { "Name": "NORTH NEWMARKET", "Description": "<img src=\"http:\/\/chart.apis.google.com\/chart?chst=d_bubble_text_small&chld=bbT|900|FFFFFF|000000\" alt=\"900\"\/>" }, "geometry": { "type": "Point", "coordinates": [ 174.777876099999986, -36.867913, 0.0 ] } },
{ "type": "Feature", "properties": { "Name": "NORTHCOTE CENTRAL", "Description": "<img src=\"http:\/\/chart.apis.google.com\/chart?chst=d_bubble_text_small&chld=bbT|900|FFFFFF|000000\" alt=\"900\"\/><img src=\"http:\/\/chart.apis.google.com\/chart?chst=d_bubble_text_small&chld=bbT|2100|FFFFFF|000000\" alt=\"2100\"\/>" }, "geometry": { "type": "Point", "coordinates": [ 174.7447732, -36.8008595, 0.0 ] } },
{ "type": "Feature", "properties": { "Name": "NORTHCOTE POINT", "Description": "<img src=\"http:\/\/chart.apis.google.com\/chart?chst=d_bubble_text_small&chld=bbT|900|FFFFFF|000000\" alt=\"900\"\/><img src=\"http:\/\/chart.apis.google.com\/chart?chst=d_bubble_text_small&chld=bbT|2100|FFFFFF|000000\" alt=\"2100\"\/>" }, "geometry": { "type": "Point", "coordinates": [ 174.740473400000013, -36.80814, 0.0 ] } },
{ "type": "Feature", "properties": { "Name": "OAMARU", "Description": "<img src=\"http:\/\/chart.apis.google.com\/chart?chst=d_bubble_text_small&chld=bbT|900|FFFFFF|000000\" alt=\"900\"\/>" }, "geometry": { "type": "Point", "coordinates": [ 170.968398400000012, -45.1175263, 0.0 ] } },
{ "type": "Feature", "properties": { "Name": "OHAKUNE", "Description": "<img src=\"http:\/\/chart.apis.google.com\/chart?chst=d_bubble_text_small&chld=bbT|900|FFFFFF|000000\" alt=\"900\"\/>" }, "geometry": { "type": "Point", "coordinates": [ 175.3986893, -39.432129, 0.0 ] } },
{ "type": "Feature", "properties": { "Name": "OHINEWAI", "Description": "<img src=\"http:\/\/chart.apis.google.com\/chart?chst=d_bubble_text_small&chld=bbT|900|FFFFFF|000000\" alt=\"900\"\/>" }, "geometry": { "type": "Point", "coordinates": [ 175.1562879, -37.4649648, 0.0 ] } },
{ "type": "Feature", "properties": { "Name": "OKAHU BAY", "Description": "<img src=\"http:\/\/chart.apis.google.com\/chart?chst=d_bubble_text_small&chld=bbT|900|FFFFFF|000000\" alt=\"900\"\/><img src=\"http:\/\/chart.apis.google.com\/chart?chst=d_bubble_text_small&chld=bbT|2100|FFFFFF|000000\" alt=\"2100\"\/>" }, "geometry": { "type": "Point", "coordinates": [ 174.820153800000014, -36.8545858, 0.0 ] } },
{ "type": "Feature", "properties": { "Name": "OMAHINE", "Description": "<img src=\"http:\/\/chart.apis.google.com\/chart?chst=d_bubble_text_small&chld=bbT|900|FFFFFF|000000\" alt=\"900\"\/>" }, "geometry": { "type": "Point", "coordinates": [ 175.9333136, -37.8762931, 0.0 ] } },
{ "type": "Feature", "properties": { "Name": "ONEHUNGA EAST", "Description": "<img src=\"http:\/\/chart.apis.google.com\/chart?chst=d_bubble_text_small&chld=bbT|900|FFFFFF|000000\" alt=\"900\"\/>" }, "geometry": { "type": "Point", "coordinates": [ 174.7851081, -36.9308845, 0.0 ] } },
{ "type": "Feature", "properties": { "Name": "OTOROHANGA", "Description": "<img src=\"http:\/\/chart.apis.google.com\/chart?chst=d_bubble_text_small&chld=bbT|900|FFFFFF|000000\" alt=\"900\"\/>" }, "geometry": { "type": "Point", "coordinates": [ 175.188673599999987, -38.1746053, 0.0 ] } },
{ "type": "Feature", "properties": { "Name": "PAEKAKARIKI", "Description": "<img src=\"http:\/\/chart.apis.google.com\/chart?chst=d_bubble_text_small&chld=bbT|900|FFFFFF|000000\" alt=\"900\"\/>" }, "geometry": { "type": "Point", "coordinates": [ 174.9577504, -40.9892971, 0.0 ] } },
{ "type": "Feature", "properties": { "Name": "PAEROA", "Description": "<img src=\"http:\/\/chart.apis.google.com\/chart?chst=d_bubble_text_small&chld=bbT|900|FFFFFF|000000\" alt=\"900\"\/>" }, "geometry": { "type": "Point", "coordinates": [ 175.6936086, -37.3792599, 0.0 ] } },
{ "type": "Feature", "properties": { "Name": "PANMURE", "Description": "<img src=\"http:\/\/chart.apis.google.com\/chart?chst=d_bubble_text_small&chld=bbT|900|FFFFFF|000000\" alt=\"900\"\/>" }, "geometry": { "type": "Point", "coordinates": [ 174.855037, -36.9008587, 0.0 ] } },
{ "type": "Feature", "properties": { "Name": "PAPAKURA", "Description": "<img src=\"http:\/\/chart.apis.google.com\/chart?chst=d_bubble_text_small&chld=bbT|900|FFFFFF|000000\" alt=\"900\"\/><img src=\"http:\/\/chart.apis.google.com\/chart?chst=d_bubble_text_small&chld=bbT|2100|FFFFFF|000000\" alt=\"2100\"\/>" }, "geometry": { "type": "Point", "coordinates": [ 174.9309716, -37.049149, 0.0 ] } },
{ "type": "Feature", "properties": { "Name": "PAPAMOA", "Description": "<img src=\"http:\/\/chart.apis.google.com\/chart?chst=d_bubble_text_small&chld=bbT|900|FFFFFF|000000\" alt=\"900\"\/><img src=\"http:\/\/chart.apis.google.com\/chart?chst=d_bubble_text_small&chld=bbT|1800|FFFFFF|000000\" alt=\"1800\"\/>" }, "geometry": { "type": "Point", "coordinates": [ 176.239461, -37.7308347, 0.0 ] } },
{ "type": "Feature", "properties": { "Name": "PAPANUI", "Description": "<img src=\"http:\/\/chart.apis.google.com\/chart?chst=d_bubble_text_small&chld=bbT|900|FFFFFF|000000\" alt=\"900\"\/>" }, "geometry": { "type": "Point", "coordinates": [ 172.607928500000014, -43.494574, 0.0 ] } },
{ "type": "Feature", "properties": { "Name": "PARAPARAUMU", "Description": "<img src=\"http:\/\/chart.apis.google.com\/chart?chst=d_bubble_text_small&chld=bbT|900|FFFFFF|000000\" alt=\"900\"\/>" }, "geometry": { "type": "Point", "coordinates": [ 175.0056126, -40.9209189, 0.0 ] } },
{ "type": "Feature", "properties": { "Name": "PARNELL", "Description": "<img src=\"http:\/\/chart.apis.google.com\/chart?chst=d_bubble_text_small&chld=bbT|2100|FFFFFF|000000\" alt=\"2100\"\/>" }, "geometry": { "type": "Point", "coordinates": [ 174.7865442, -36.8560518, 0.0 ] } },
{ "type": "Feature", "properties": { "Name": "PARNELL RIDGE", "Description": "<img src=\"http:\/\/chart.apis.google.com\/chart?chst=d_bubble_text_small&chld=bbT|900|FFFFFF|000000\" alt=\"900\"\/>" }, "geometry": { "type": "Point", "coordinates": [ 174.7811008, -36.8624515, 0.0 ] } },
{ "type": "Feature", "properties": { "Name": "PARNELL ROAD", "Description": "<img src=\"http:\/\/chart.apis.google.com\/chart?chst=d_bubble_text_small&chld=bbT|900|FFFFFF|000000\" alt=\"900\"\/>" }, "geometry": { "type": "Point", "coordinates": [ 174.7876188, -36.8542313, 0.0 ] } },
{ "type": "Feature", "properties": { "Name": "PATEA", "Description": "<img src=\"http:\/\/chart.apis.google.com\/chart?chst=d_bubble_text_small&chld=bbT|900|FFFFFF|000000\" alt=\"900\"\/>" }, "geometry": { "type": "Point", "coordinates": [ 174.5211665, -39.6284182, 0.0 ] } },
{ "type": "Feature", "properties": { "Name": "PAUANUI\/TAIRUA", "Description": "<img src=\"http:\/\/chart.apis.google.com\/chart?chst=d_bubble_text_small&chld=bbT|900|FFFFFF|000000\" alt=\"900\"\/><img src=\"http:\/\/chart.apis.google.com\/chart?chst=d_bubble_text_small&chld=bbT|2100|FFFFFF|000000\" alt=\"2100\"\/>" }, "geometry": { "type": "Point", "coordinates": [ 175.8218431, -36.9676679, 0.0 ] } },
{ "type": "Feature", "properties": { "Name": "PICTON", "Description": "<img src=\"http:\/\/chart.apis.google.com\/chart?chst=d_bubble_text_small&chld=bbT|900|FFFFFF|000000\" alt=\"900\"\/>" }, "geometry": { "type": "Point", "coordinates": [ 173.9744964, -41.2962808, 0.0 ] } },
{ "type": "Feature", "properties": { "Name": "PIHA", "Description": "<img src=\"http:\/\/chart.apis.google.com\/chart?chst=d_bubble_text_small&chld=bbT|900|FFFFFF|000000\" alt=\"900\"\/>" }, "geometry": { "type": "Point", "coordinates": [ 174.4725589, -36.961801, 0.0 ] } },
{ "type": "Feature", "properties": { "Name": "PLIMMERTON", "Description": "<img src=\"http:\/\/chart.apis.google.com\/chart?chst=d_bubble_text_small&chld=bbT|900|FFFFFF|000000\" alt=\"900\"\/>" }, "geometry": { "type": "Point", "coordinates": [ 174.890316, -41.0840961, 0.0 ] } },
{ "type": "Feature", "properties": { "Name": "PONSONBY CENTRAL", "Description": "<img src=\"http:\/\/chart.apis.google.com\/chart?chst=d_bubble_text_small&chld=bbT|900|FFFFFF|000000\" alt=\"900\"\/><img src=\"http:\/\/chart.apis.google.com\/chart?chst=d_bubble_text_small&chld=bbT|1800|FFFFFF|000000\" alt=\"1800\"\/><img src=\"http:\/\/chart.apis.google.com\/chart?chst=d_bubble_text_small&chld=bbT|2100|FFFFFF|000000\" alt=\"2100\"\/>" }, "geometry": { "type": "Point", "coordinates": [ 174.7416992, -36.8567904, 0.0 ] } },
{ "type": "Feature", "properties": { "Name": "PONSONBY ROAD", "Description": "<img src=\"http:\/\/chart.apis.google.com\/chart?chst=d_bubble_text_small&chld=bbT|900|FFFFFF|000000\" alt=\"900\"\/><img src=\"http:\/\/chart.apis.google.com\/chart?chst=d_bubble_text_small&chld=bbT|1800|FFFFFF|000000\" alt=\"1800\"\/>" }, "geometry": { "type": "Point", "coordinates": [ 174.746161, -36.8558164, 0.0 ] } },
{ "type": "Feature", "properties": { "Name": "PORIRUA B", "Description": "<img src=\"http:\/\/chart.apis.google.com\/chart?chst=d_bubble_text_small&chld=bbT|1800|FFFFFF|000000\" alt=\"1800\"\/>" }, "geometry": { "type": "Point", "coordinates": [ 174.8205317, -41.1437616, 0.0 ] } },
{ "type": "Feature", "properties": { "Name": "PUKEHOU", "Description": "<img src=\"http:\/\/chart.apis.google.com\/chart?chst=d_bubble_text_small&chld=bbT|1800|FFFFFF|000000\" alt=\"1800\"\/>" }, "geometry": { "type": "Point", "coordinates": [ 175.1885775, -40.7428374, 0.0 ] } },
{ "type": "Feature", "properties": { "Name": "PUKEPOTO", "Description": "<img src=\"http:\/\/chart.apis.google.com\/chart?chst=d_bubble_text_small&chld=bbT|900|FFFFFF|000000\" alt=\"900\"\/>" }, "geometry": { "type": "Point", "coordinates": [ 176.3480585, -38.131614, 0.0 ] } },
{ "type": "Feature", "properties": { "Name": "PUKERUA BAY", "Description": "<img src=\"http:\/\/chart.apis.google.com\/chart?chst=d_bubble_text_small&chld=bbT|900|FFFFFF|000000\" alt=\"900\"\/>" }, "geometry": { "type": "Point", "coordinates": [ 174.8771161, -41.0383742, 0.0 ] } },
{ "type": "Feature", "properties": { "Name": "PUTARURU", "Description": "<img src=\"http:\/\/chart.apis.google.com\/chart?chst=d_bubble_text_small&chld=bbT|900|FFFFFF|000000\" alt=\"900\"\/>" }, "geometry": { "type": "Point", "coordinates": [ 175.7822147, -38.053239, 0.0 ] } },
{ "type": "Feature", "properties": { "Name": "PUTAUAKI", "Description": "<img src=\"http:\/\/chart.apis.google.com\/chart?chst=d_bubble_text_small&chld=bbT|900|FFFFFF|000000\" alt=\"900\"\/>" }, "geometry": { "type": "Point", "coordinates": [ 176.735947900000014, -38.1050556, 0.0 ] } },
{ "type": "Feature", "properties": { "Name": "QUEEN CHARLOTTE SOUND", "Description": "<img src=\"http:\/\/chart.apis.google.com\/chart?chst=d_bubble_text_small&chld=bbT|900|FFFFFF|000000\" alt=\"900\"\/>" }, "geometry": { "type": "Point", "coordinates": [ 174.117279599999989, -41.2661715, 0.0 ] } },
{ "type": "Feature", "properties": { "Name": "QUEENSTOWN", "Description": "<img src=\"http:\/\/chart.apis.google.com\/chart?chst=d_bubble_text_small&chld=bbT|900|FFFFFF|000000\" alt=\"900\"\/>" }, "geometry": { "type": "Point", "coordinates": [ 168.6500474, -45.0263065, 0.0 ] } },
{ "type": "Feature", "properties": { "Name": "RAGLAN", "Description": "<img src=\"http:\/\/chart.apis.google.com\/chart?chst=d_bubble_text_small&chld=bbT|900|FFFFFF|000000\" alt=\"900\"\/>" }, "geometry": { "type": "Point", "coordinates": [ 174.849434800000012, -37.8301965, 0.0 ] } },
{ "type": "Feature", "properties": { "Name": "RAINBOW MOUNTAIN", "Description": "<img src=\"http:\/\/chart.apis.google.com\/chart?chst=d_bubble_text_small&chld=bbT|900|FFFFFF|000000\" alt=\"900\"\/>" }, "geometry": { "type": "Point", "coordinates": [ 176.38791710000001, -38.3197803, 0.0 ] } },
{ "type": "Feature", "properties": { "Name": "RANGIORA", "Description": "<img src=\"http:\/\/chart.apis.google.com\/chart?chst=d_bubble_text_small&chld=bbT|2100|FFFFFF|000000\" alt=\"2100\"\/>" }, "geometry": { "type": "Point", "coordinates": [ 172.597903, -43.3280186, 0.0 ] } },
{ "type": "Feature", "properties": { "Name": "RANGITATA", "Description": "<img src=\"http:\/\/chart.apis.google.com\/chart?chst=d_bubble_text_small&chld=bbT|900|FFFFFF|000000\" alt=\"900\"\/>" }, "geometry": { "type": "Point", "coordinates": [ 171.417619300000013, -44.0478972, 0.0 ] } },
{ "type": "Feature", "properties": { "Name": "REMUERA RELOCATE", "Description": "<img src=\"http:\/\/chart.apis.google.com\/chart?chst=d_bubble_text_small&chld=bbT|900|FFFFFF|000000\" alt=\"900\"\/><img src=\"http:\/\/chart.apis.google.com\/chart?chst=d_bubble_text_small&chld=bbT|2100|FFFFFF|000000\" alt=\"2100\"\/>" }, "geometry": { "type": "Point", "coordinates": [ 174.7861666, -36.8849001, 0.0 ] } },
{ "type": "Feature", "properties": { "Name": "RENWICK", "Description": "<img src=\"http:\/\/chart.apis.google.com\/chart?chst=d_bubble_text_small&chld=bbT|900|FFFFFF|000000\" alt=\"900\"\/>" }, "geometry": { "type": "Point", "coordinates": [ 173.8138389, -41.4371041, 0.0 ] } },
{ "type": "Feature", "properties": { "Name": "ROSEBANK PENINSULA", "Description": "<img src=\"http:\/\/chart.apis.google.com\/chart?chst=d_bubble_text_small&chld=bbT|900|FFFFFF|000000\" alt=\"900\"\/><img src=\"http:\/\/chart.apis.google.com\/chart?chst=d_bubble_text_small&chld=bbT|2100|FFFFFF|000000\" alt=\"2100\"\/>" }, "geometry": { "type": "Point", "coordinates": [ 174.6783428, -36.8803367, 0.0 ] } },
{ "type": "Feature", "properties": { "Name": "ROSSMORE", "Description": "<img src=\"http:\/\/chart.apis.google.com\/chart?chst=d_bubble_text_small&chld=bbT|900|FFFFFF|000000\" alt=\"900\"\/><img src=\"http:\/\/chart.apis.google.com\/chart?chst=d_bubble_text_small&chld=bbT|2100|FFFFFF|000000\" alt=\"2100\"\/>" }, "geometry": { "type": "Point", "coordinates": [ 174.7763761, -41.2741458, 0.0 ] } },
{ "type": "Feature", "properties": { "Name": "ROTOROA ISLAND", "Description": "<img src=\"http:\/\/chart.apis.google.com\/chart?chst=d_bubble_text_small&chld=bbT|900|FFFFFF|000000\" alt=\"900\"\/><img src=\"http:\/\/chart.apis.google.com\/chart?chst=d_bubble_text_small&chld=bbT|2100|FFFFFF|000000\" alt=\"2100\"\/>" }, "geometry": { "type": "Point", "coordinates": [ 175.1993822, -36.822308, 0.0 ] } },
{ "type": "Feature", "properties": { "Name": "ROXBURGH", "Description": "<img src=\"http:\/\/chart.apis.google.com\/chart?chst=d_bubble_text_small&chld=bbT|900|FFFFFF|000000\" alt=\"900\"\/>" }, "geometry": { "type": "Point", "coordinates": [ 169.3020258, -45.5461164, 0.0 ] } },
{ "type": "Feature", "properties": { "Name": "ROYAL OAK MALL", "Description": "<img src=\"http:\/\/chart.apis.google.com\/chart?chst=d_bubble_text_small&chld=bbT|900|FFFFFF|000000\" alt=\"900\"\/><img src=\"http:\/\/chart.apis.google.com\/chart?chst=d_bubble_text_small&chld=bbT|2100|FFFFFF|000000\" alt=\"2100\"\/>" }, "geometry": { "type": "Point", "coordinates": [ 174.775644699999987, -36.912114, 0.0 ] } },
{ "type": "Feature", "properties": { "Name": "RUAPEHU", "Description": "<img src=\"http:\/\/chart.apis.google.com\/chart?chst=d_bubble_text_small&chld=bbT|900|FFFFFF|000000\" alt=\"900\"\/>" }, "geometry": { "type": "Point", "coordinates": [ 175.3963852, -39.1672143, 0.0 ] } },
{ "type": "Feature", "properties": { "Name": "SHELLY BAY", "Description": "<img src=\"http:\/\/chart.apis.google.com\/chart?chst=d_bubble_text_small&chld=bbT|900|FFFFFF|000000\" alt=\"900\"\/><img src=\"http:\/\/chart.apis.google.com\/chart?chst=d_bubble_text_small&chld=bbT|2100|FFFFFF|000000\" alt=\"2100\"\/>" }, "geometry": { "type": "Point", "coordinates": [ 174.821175, -41.2968671, 0.0 ] } },
{ "type": "Feature", "properties": { "Name": "SILVERDALE", "Description": "<img src=\"http:\/\/chart.apis.google.com\/chart?chst=d_bubble_text_small&chld=bbT|900|FFFFFF|000000\" alt=\"900\"\/><img src=\"http:\/\/chart.apis.google.com\/chart?chst=d_bubble_text_small&chld=bbT|2100|FFFFFF|000000\" alt=\"2100\"\/>" }, "geometry": { "type": "Point", "coordinates": [ 174.6819836, -36.6162014, 0.0 ] } },
{ "type": "Feature", "properties": { "Name": "SNELLS BEACH", "Description": "<img src=\"http:\/\/chart.apis.google.com\/chart?chst=d_bubble_text_small&chld=bbT|900|FFFFFF|000000\" alt=\"900\"\/>" }, "geometry": { "type": "Point", "coordinates": [ 174.7158449, -36.4038534, 0.0 ] } },
{ "type": "Feature", "properties": { "Name": "SPRINGFIELD WEST\/DARFIELD", "Description": "<img src=\"http:\/\/chart.apis.google.com\/chart?chst=d_bubble_text_small&chld=bbT|900|FFFFFF|000000\" alt=\"900\"\/><img src=\"http:\/\/chart.apis.google.com\/chart?chst=d_bubble_text_small&chld=bbT|2100|FFFFFF|000000\" alt=\"2100\"\/>" }, "geometry": { "type": "Point", "coordinates": [ 171.9776288, -43.4042759, 0.0 ] } },
{ "type": "Feature", "properties": { "Name": "ST HELIER'S BAY", "Description": "<img src=\"http:\/\/chart.apis.google.com\/chart?chst=d_bubble_text_small&chld=bbT|900|FFFFFF|000000\" alt=\"900\"\/>" }, "geometry": { "type": "Point", "coordinates": [ 174.8581983, -36.851231, 0.0 ] } },
{ "type": "Feature", "properties": { "Name": "ST JOHNS", "Description": "<img src=\"http:\/\/chart.apis.google.com\/chart?chst=d_bubble_text_small&chld=bbT|900|FFFFFF|000000\" alt=\"900\"\/><img src=\"http:\/\/chart.apis.google.com\/chart?chst=d_bubble_text_small&chld=bbT|1800|FFFFFF|000000\" alt=\"1800\"\/><img src=\"http:\/\/chart.apis.google.com\/chart?chst=d_bubble_text_small&chld=bbT|2100|FFFFFF|000000\" alt=\"2100\"\/>" }, "geometry": { "type": "Point", "coordinates": [ 174.8452486, -36.8703818, 0.0 ] } },
{ "type": "Feature", "properties": { "Name": "TAMAKI DRIVE", "Description": "<img src=\"http:\/\/chart.apis.google.com\/chart?chst=d_bubble_text_small&chld=bbT|900|FFFFFF|000000\" alt=\"900\"\/><img src=\"http:\/\/chart.apis.google.com\/chart?chst=d_bubble_text_small&chld=bbT|2100|FFFFFF|000000\" alt=\"2100\"\/>" }, "geometry": { "type": "Point", "coordinates": [ 174.816554599999989, -36.8456336, 0.0 ] } },
{ "type": "Feature", "properties": { "Name": "TARADALE", "Description": "<img src=\"http:\/\/chart.apis.google.com\/chart?chst=d_bubble_text_small&chld=bbT|900|FFFFFF|000000\" alt=\"900\"\/>" }, "geometry": { "type": "Point", "coordinates": [ 176.8251769, -39.5421079, 0.0 ] } },
{ "type": "Feature", "properties": { "Name": "TAUPO", "Description": "<img src=\"http:\/\/chart.apis.google.com\/chart?chst=d_bubble_text_small&chld=bbT|900|FFFFFF|000000\" alt=\"900\"\/>" }, "geometry": { "type": "Point", "coordinates": [ 175.996019, -38.7094779, 0.0 ] } },
{ "type": "Feature", "properties": { "Name": "TE AROHA", "Description": "<img src=\"http:\/\/chart.apis.google.com\/chart?chst=d_bubble_text_small&chld=bbT|900|FFFFFF|000000\" alt=\"900\"\/>" }, "geometry": { "type": "Point", "coordinates": [ 175.7100089, -37.5420396, 0.0 ] } },
{ "type": "Feature", "properties": { "Name": "TE ATATU NTH PENINSULA", "Description": "<img src=\"http:\/\/chart.apis.google.com\/chart?chst=d_bubble_text_small&chld=bbT|900|FFFFFF|000000\" alt=\"900\"\/>" }, "geometry": { "type": "Point", "coordinates": [ 174.646874700000012, -36.8312574, 0.0 ] } },
{ "type": "Feature", "properties": { "Name": "TE ATATU SOUTH", "Description": "<img src=\"http:\/\/chart.apis.google.com\/chart?chst=d_bubble_text_small&chld=bbT|900|FFFFFF|000000\" alt=\"900\"\/><img src=\"http:\/\/chart.apis.google.com\/chart?chst=d_bubble_text_small&chld=bbT|2100|FFFFFF|000000\" alt=\"2100\"\/>" }, "geometry": { "type": "Point", "coordinates": [ 174.6476519, -36.8636913, 0.0 ] } },
{ "type": "Feature", "properties": { "Name": "TE KAUWHATA", "Description": "<img src=\"http:\/\/chart.apis.google.com\/chart?chst=d_bubble_text_small&chld=bbT|900|FFFFFF|000000\" alt=\"900\"\/>" }, "geometry": { "type": "Point", "coordinates": [ 175.0918293, -37.3895956, 0.0 ] } },
{ "type": "Feature", "properties": { "Name": "TE KOWHAI", "Description": "<img src=\"http:\/\/chart.apis.google.com\/chart?chst=d_bubble_text_small&chld=bbT|900|FFFFFF|000000\" alt=\"900\"\/>" }, "geometry": { "type": "Point", "coordinates": [ 175.2062597, -37.7226726, 0.0 ] } },
{ "type": "Feature", "properties": { "Name": "TE KUITI", "Description": "<img src=\"http:\/\/chart.apis.google.com\/chart?chst=d_bubble_text_small&chld=bbT|900|FFFFFF|000000\" alt=\"900\"\/>" }, "geometry": { "type": "Point", "coordinates": [ 175.139911500000011, -38.3332847, 0.0 ] } },
{ "type": "Feature", "properties": { "Name": "TE PAPAPA", "Description": "<img src=\"http:\/\/chart.apis.google.com\/chart?chst=d_bubble_text_small&chld=bbT|900|FFFFFF|000000\" alt=\"900\"\/>" }, "geometry": { "type": "Point", "coordinates": [ 174.8028291, -36.9215754, 0.0 ] } },
{ "type": "Feature", "properties": { "Name": "TE RAPA", "Description": "<img src=\"http:\/\/chart.apis.google.com\/chart?chst=d_bubble_text_small&chld=bbT|900|FFFFFF|000000\" alt=\"900\"\/>" }, "geometry": { "type": "Point", "coordinates": [ 175.2493816, -37.7578592, 0.0 ] } },
{ "type": "Feature", "properties": { "Name": "TEMUKA", "Description": "<img src=\"http:\/\/chart.apis.google.com\/chart?chst=d_bubble_text_small&chld=bbT|900|FFFFFF|000000\" alt=\"900\"\/>" }, "geometry": { "type": "Point", "coordinates": [ 171.2915246, -44.2252483, 0.0 ] } },
{ "type": "Feature", "properties": { "Name": "THE STRAND", "Description": "<img src=\"http:\/\/chart.apis.google.com\/chart?chst=d_bubble_text_small&chld=bbT|2100|FFFFFF|000000\" alt=\"2100\"\/>" }, "geometry": { "type": "Point", "coordinates": [ 174.7780773, -36.8495499, 0.0 ] } },
{ "type": "Feature", "properties": { "Name": "THREE KINGS", "Description": "<img src=\"http:\/\/chart.apis.google.com\/chart?chst=d_bubble_text_small&chld=bbT|900|FFFFFF|000000\" alt=\"900\"\/><img src=\"http:\/\/chart.apis.google.com\/chart?chst=d_bubble_text_small&chld=bbT|2100|FFFFFF|000000\" alt=\"2100\"\/>" }, "geometry": { "type": "Point", "coordinates": [ 174.755381, -36.9097437, 0.0 ] } },
{ "type": "Feature", "properties": { "Name": "TIMARU", "Description": "<img src=\"http:\/\/chart.apis.google.com\/chart?chst=d_bubble_text_small&chld=bbT|900|FFFFFF|000000\" alt=\"900\"\/>" }, "geometry": { "type": "Point", "coordinates": [ 171.251592499999987, -44.3929896, 0.0 ] } },
{ "type": "Feature", "properties": { "Name": "TIRAU", "Description": "<img src=\"http:\/\/chart.apis.google.com\/chart?chst=d_bubble_text_small&chld=bbT|900|FFFFFF|000000\" alt=\"900\"\/>" }, "geometry": { "type": "Point", "coordinates": [ 175.6958086, -37.9706074, 0.0 ] } },
{ "type": "Feature", "properties": { "Name": "TOKOMARU", "Description": "<img src=\"http:\/\/chart.apis.google.com\/chart?chst=d_bubble_text_small&chld=bbT|900|FFFFFF|000000\" alt=\"900\"\/>" }, "geometry": { "type": "Point", "coordinates": [ 175.54339250000001, -40.4796976, 0.0 ] } },
{ "type": "Feature", "properties": { "Name": "TOKOROA", "Description": "<img src=\"http:\/\/chart.apis.google.com\/chart?chst=d_bubble_text_small&chld=bbT|900|FFFFFF|000000\" alt=\"900\"\/>" }, "geometry": { "type": "Point", "coordinates": [ 175.873128900000012, -38.2132269, 0.0 ] } },
{ "type": "Feature", "properties": { "Name": "TORBAY", "Description": "<img src=\"http:\/\/chart.apis.google.com\/chart?chst=d_bubble_text_small&chld=bbT|900|FFFFFF|000000\" alt=\"900\"\/>" }, "geometry": { "type": "Point", "coordinates": [ 174.718801, -36.7030387, 0.0 ] } },
{ "type": "Feature", "properties": { "Name": "TOWAI", "Description": "<img src=\"http:\/\/chart.apis.google.com\/chart?chst=d_bubble_text_small&chld=bbT|900|FFFFFF|000000\" alt=\"900\"\/>" }, "geometry": { "type": "Point", "coordinates": [ 174.0936252, -35.4696153, 0.0 ] } },
{ "type": "Feature", "properties": { "Name": "TREBLE CONE", "Description": "<img src=\"http:\/\/chart.apis.google.com\/chart?chst=d_bubble_text_small&chld=bbT|900|FFFFFF|000000\" alt=\"900\"\/>" }, "geometry": { "type": "Point", "coordinates": [ 169.0517778, -44.628011, 0.0 ] } },
{ "type": "Feature", "properties": { "Name": "TRENTHAM", "Description": "<img src=\"http:\/\/chart.apis.google.com\/chart?chst=d_bubble_text_small&chld=bbT|2100|FFFFFF|000000\" alt=\"2100\"\/>" }, "geometry": { "type": "Point", "coordinates": [ 175.034946100000013, -41.1419908, 0.0 ] } },
{ "type": "Feature", "properties": { "Name": "TUAKAU", "Description": "<img src=\"http:\/\/chart.apis.google.com\/chart?chst=d_bubble_text_small&chld=bbT|900|FFFFFF|000000\" alt=\"900\"\/>" }, "geometry": { "type": "Point", "coordinates": [ 174.944398, -37.2481053, 0.0 ] } },
{ "type": "Feature", "properties": { "Name": "TUAMARINA", "Description": "<img src=\"http:\/\/chart.apis.google.com\/chart?chst=d_bubble_text_small&chld=bbT|900|FFFFFF|000000\" alt=\"900\"\/>" }, "geometry": { "type": "Point", "coordinates": [ 173.9342024, -41.4019773, 0.0 ] } },
{ "type": "Feature", "properties": { "Name": "TURANGI", "Description": "<img src=\"http:\/\/chart.apis.google.com\/chart?chst=d_bubble_text_small&chld=bbT|900|FFFFFF|000000\" alt=\"900\"\/>" }, "geometry": { "type": "Point", "coordinates": [ 175.75837580000001, -38.9832322, 0.0 ] } },
{ "type": "Feature", "properties": { "Name": "TUTUKAKA", "Description": "<img src=\"http:\/\/chart.apis.google.com\/chart?chst=d_bubble_text_small&chld=bbT|900|FFFFFF|000000\" alt=\"900\"\/>" }, "geometry": { "type": "Point", "coordinates": [ 174.51335, -35.6183264, 0.0 ] } },
{ "type": "Feature", "properties": { "Name": "TWIZEL (THE BUSCOT)", "Description": "<img src=\"http:\/\/chart.apis.google.com\/chart?chst=d_bubble_text_small&chld=bbT|900|FFFFFF|000000\" alt=\"900\"\/>" }, "geometry": { "type": "Point", "coordinates": [ 170.0330382, -44.40335, 0.0 ] } },
{ "type": "Feature", "properties": { "Name": "UNITEC", "Description": "<img src=\"http:\/\/chart.apis.google.com\/chart?chst=d_bubble_text_small&chld=bbT|900|FFFFFF|000000\" alt=\"900\"\/>" }, "geometry": { "type": "Point", "coordinates": [ 174.708600499999989, -36.8789555, 0.0 ] } },
{ "type": "Feature", "properties": { "Name": "VIADUCT BASIN", "Description": "<img src=\"http:\/\/chart.apis.google.com\/chart?chst=d_bubble_text_small&chld=bbT|900|FFFFFF|000000\" alt=\"900\"\/><img src=\"http:\/\/chart.apis.google.com\/chart?chst=d_bubble_text_small&chld=bbT|2100|FFFFFF|000000\" alt=\"2100\"\/>" }, "geometry": { "type": "Point", "coordinates": [ 174.7626333, -36.8420269, 0.0 ] } },
{ "type": "Feature", "properties": { "Name": "WAIHEKE ISLAND", "Description": "<img src=\"http:\/\/chart.apis.google.com\/chart?chst=d_bubble_text_small&chld=bbT|900|FFFFFF|000000\" alt=\"900\"\/>" }, "geometry": { "type": "Point", "coordinates": [ 175.007540799999987, -36.7791517, 0.0 ] } },
{ "type": "Feature", "properties": { "Name": "WAIHI", "Description": "<img src=\"http:\/\/chart.apis.google.com\/chart?chst=d_bubble_text_small&chld=bbT|900|FFFFFF|000000\" alt=\"900\"\/>" }, "geometry": { "type": "Point", "coordinates": [ 175.819674600000013, -37.3959701, 0.0 ] } },
{ "type": "Feature", "properties": { "Name": "WAIKANAE", "Description": "<img src=\"http:\/\/chart.apis.google.com\/chart?chst=d_bubble_text_small&chld=bbT|900|FFFFFF|000000\" alt=\"900\"\/>" }, "geometry": { "type": "Point", "coordinates": [ 175.1029476, -40.8444217, 0.0 ] } },
{ "type": "Feature", "properties": { "Name": "WAIKATO HOSPITAL", "Description": "<img src=\"http:\/\/chart.apis.google.com\/chart?chst=d_bubble_text_small&chld=bbT|900|FFFFFF|000000\" alt=\"900\"\/><img src=\"http:\/\/chart.apis.google.com\/chart?chst=d_bubble_text_small&chld=bbT|1800|FFFFFF|000000\" alt=\"1800\"\/>" }, "geometry": { "type": "Point", "coordinates": [ 175.281546600000013, -37.8040737, 0.0 ] } },
{ "type": "Feature", "properties": { "Name": "WAIKERIA", "Description": "<img src=\"http:\/\/chart.apis.google.com\/chart?chst=d_bubble_text_small&chld=bbT|900|FFFFFF|000000\" alt=\"900\"\/>" }, "geometry": { "type": "Point", "coordinates": [ 175.345014, -38.138074, 0.0 ] } },
{ "type": "Feature", "properties": { "Name": "WAIKOUAITI", "Description": "<img src=\"http:\/\/chart.apis.google.com\/chart?chst=d_bubble_text_small&chld=bbT|900|FFFFFF|000000\" alt=\"900\"\/>" }, "geometry": { "type": "Point", "coordinates": [ 170.665635400000014, -45.5736904, 0.0 ] } },
{ "type": "Feature", "properties": { "Name": "WAIMATE", "Description": "<img src=\"http:\/\/chart.apis.google.com\/chart?chst=d_bubble_text_small&chld=bbT|900|FFFFFF|000000\" alt=\"900\"\/>" }, "geometry": { "type": "Point", "coordinates": [ 170.9260923, -44.6559188, 0.0 ] } },
{ "type": "Feature", "properties": { "Name": "WAIOHOTU", "Description": "<img src=\"http:\/\/chart.apis.google.com\/chart?chst=d_bubble_text_small&chld=bbT|900|FFFFFF|000000\" alt=\"900\"\/>" }, "geometry": { "type": "Point", "coordinates": [ 175.9270383, -37.9990711, 0.0 ] } },
{ "type": "Feature", "properties": { "Name": "WAIOURU", "Description": "<img src=\"http:\/\/chart.apis.google.com\/chart?chst=d_bubble_text_small&chld=bbT|900|FFFFFF|000000\" alt=\"900\"\/>" }, "geometry": { "type": "Point", "coordinates": [ 175.6522871, -39.4986087, 0.0 ] } },
{ "type": "Feature", "properties": { "Name": "WAIPARA", "Description": "<img src=\"http:\/\/chart.apis.google.com\/chart?chst=d_bubble_text_small&chld=bbT|900|FFFFFF|000000\" alt=\"900\"\/>" }, "geometry": { "type": "Point", "coordinates": [ 172.727989400000013, -42.917928, 0.0 ] } },
{ "type": "Feature", "properties": { "Name": "WAIPUKURAU", "Description": "<img src=\"http:\/\/chart.apis.google.com\/chart?chst=d_bubble_text_small&chld=bbT|900|FFFFFF|000000\" alt=\"900\"\/>" }, "geometry": { "type": "Point", "coordinates": [ 176.5961178, -39.9938927, 0.0 ] } },
{ "type": "Feature", "properties": { "Name": "WAIRAKEI", "Description": "<img src=\"http:\/\/chart.apis.google.com\/chart?chst=d_bubble_text_small&chld=bbT|900|FFFFFF|000000\" alt=\"900\"\/>" }, "geometry": { "type": "Point", "coordinates": [ 176.114697799999988, -38.6359632, 0.0 ] } },
{ "type": "Feature", "properties": { "Name": "WAIRAU ROAD", "Description": "<img src=\"http:\/\/chart.apis.google.com\/chart?chst=d_bubble_text_small&chld=bbT|900|FFFFFF|000000\" alt=\"900\"\/><img src=\"http:\/\/chart.apis.google.com\/chart?chst=d_bubble_text_small&chld=bbT|2100|FFFFFF|000000\" alt=\"2100\"\/>" }, "geometry": { "type": "Point", "coordinates": [ 174.741828700000013, -36.7729671, 0.0 ] } },
{ "type": "Feature", "properties": { "Name": "WAIROA", "Description": "<img src=\"http:\/\/chart.apis.google.com\/chart?chst=d_bubble_text_small&chld=bbT|900|FFFFFF|000000\" alt=\"900\"\/>" }, "geometry": { "type": "Point", "coordinates": [ 177.371445599999987, -39.0456467, 0.0 ] } },
{ "type": "Feature", "properties": { "Name": "WAITARA", "Description": "<img src=\"http:\/\/chart.apis.google.com\/chart?chst=d_bubble_text_small&chld=bbT|900|FFFFFF|000000\" alt=\"900\"\/>" }, "geometry": { "type": "Point", "coordinates": [ 174.2255491, -39.0112946, 0.0 ] } },
{ "type": "Feature", "properties": { "Name": "WAIWERA TOWNSHIP", "Description": "<img src=\"http:\/\/chart.apis.google.com\/chart?chst=d_bubble_text_small&chld=bbT|900|FFFFFF|000000\" alt=\"900\"\/>" }, "geometry": { "type": "Point", "coordinates": [ 174.7058427, -36.5410133, 0.0 ] } },
{ "type": "Feature", "properties": { "Name": "WANGANUI AIRPORT", "Description": "<img src=\"http:\/\/chart.apis.google.com\/chart?chst=d_bubble_text_small&chld=bbT|900|FFFFFF|000000\" alt=\"900\"\/>" }, "geometry": { "type": "Point", "coordinates": [ 175.055492500000014, -39.9587766, 0.0 ] } },
{ "type": "Feature", "properties": { "Name": "WANGANUI WEST", "Description": "<img src=\"http:\/\/chart.apis.google.com\/chart?chst=d_bubble_text_small&chld=bbT|900|FFFFFF|000000\" alt=\"900\"\/>" }, "geometry": { "type": "Point", "coordinates": [ 175.0135869, -39.8883431, 0.0 ] } },
{ "type": "Feature", "properties": { "Name": "WARKWORTH", "Description": "<img src=\"http:\/\/chart.apis.google.com\/chart?chst=d_bubble_text_small&chld=bbT|900|FFFFFF|000000\" alt=\"900\"\/>" }, "geometry": { "type": "Point", "coordinates": [ 174.6522081, -36.4003594, 0.0 ] } },
{ "type": "Feature", "properties": { "Name": "WAVERLEY", "Description": "<img src=\"http:\/\/chart.apis.google.com\/chart?chst=d_bubble_text_small&chld=bbT|900|FFFFFF|000000\" alt=\"900\"\/>" }, "geometry": { "type": "Point", "coordinates": [ 174.6512452, -39.7545287, 0.0 ] } },
{ "type": "Feature", "properties": { "Name": "WEST EGMONT", "Description": "<img src=\"http:\/\/chart.apis.google.com\/chart?chst=d_bubble_text_small&chld=bbT|900|FFFFFF|000000\" alt=\"900\"\/>" }, "geometry": { "type": "Point", "coordinates": [ 173.9307335, -39.3141889, 0.0 ] } },
{ "type": "Feature", "properties": { "Name": "WEST HARBOUR", "Description": "<img src=\"http:\/\/chart.apis.google.com\/chart?chst=d_bubble_text_small&chld=bbT|2100|FFFFFF|000000\" alt=\"2100\"\/>" }, "geometry": { "type": "Point", "coordinates": [ 174.6252, -36.8153681, 0.0 ] } },
{ "type": "Feature", "properties": { "Name": "WESTERN SPRINGS", "Description": "<img src=\"http:\/\/chart.apis.google.com\/chart?chst=d_bubble_text_small&chld=bbT|2100|FFFFFF|000000\" alt=\"2100\"\/>" }, "geometry": { "type": "Point", "coordinates": [ 174.7274174, -36.8687388, 0.0 ] } },
{ "type": "Feature", "properties": { "Name": "WESTHARBOUR", "Description": "<img src=\"http:\/\/chart.apis.google.com\/chart?chst=d_bubble_text_small&chld=bbT|900|FFFFFF|000000\" alt=\"900\"\/>" }, "geometry": { "type": "Point", "coordinates": [ 174.6252, -36.8153681, 0.0 ] } },
{ "type": "Feature", "properties": { "Name": "WESTPORT", "Description": "<img src=\"http:\/\/chart.apis.google.com\/chart?chst=d_bubble_text_small&chld=bbT|900|FFFFFF|000000\" alt=\"900\"\/>" }, "geometry": { "type": "Point", "coordinates": [ 171.739498700000013, -41.7786292, 0.0 ] } },
{ "type": "Feature", "properties": { "Name": "WHAKAPAPA VILLAGE", "Description": "<img src=\"http:\/\/chart.apis.google.com\/chart?chst=d_bubble_text_small&chld=bbT|900|FFFFFF|000000\" alt=\"900\"\/><img src=\"http:\/\/chart.apis.google.com\/chart?chst=d_bubble_text_small&chld=bbT|2100|FFFFFF|000000\" alt=\"2100\"\/>" }, "geometry": { "type": "Point", "coordinates": [ 175.5411667, -39.200116, 0.0 ] } },
{ "type": "Feature", "properties": { "Name": "WHAKAREWAREWA", "Description": "<img src=\"http:\/\/chart.apis.google.com\/chart?chst=d_bubble_text_small&chld=bbT|900|FFFFFF|000000\" alt=\"900\"\/>" }, "geometry": { "type": "Point", "coordinates": [ 176.2775196, -38.2103218, 0.0 ] } },
{ "type": "Feature", "properties": { "Name": "WHANGAMATA", "Description": "<img src=\"http:\/\/chart.apis.google.com\/chart?chst=d_bubble_text_small&chld=bbT|900|FFFFFF|000000\" alt=\"900\"\/>" }, "geometry": { "type": "Point", "coordinates": [ 175.85794, -37.1957455, 0.0 ] } },
{ "type": "Feature", "properties": { "Name": "WHANGAREI", "Description": "<img src=\"http:\/\/chart.apis.google.com\/chart?chst=d_bubble_text_small&chld=bbT|900|FFFFFF|000000\" alt=\"900\"\/>" }, "geometry": { "type": "Point", "coordinates": [ 174.3189085, -35.7228597, 0.0 ] } },
{ "type": "Feature", "properties": { "Name": "WHANGARURU", "Description": "<img src=\"http:\/\/chart.apis.google.com\/chart?chst=d_bubble_text_small&chld=bbT|900|FFFFFF|000000\" alt=\"900\"\/>" }, "geometry": { "type": "Point", "coordinates": [ 174.317839, -35.4416665, 0.0 ] } },
{ "type": "Feature", "properties": { "Name": "WHARITE", "Description": "<img src=\"http:\/\/chart.apis.google.com\/chart?chst=d_bubble_text_small&chld=bbT|900|FFFFFF|000000\" alt=\"900\"\/>" }, "geometry": { "type": "Point", "coordinates": [ 175.8583136, -40.2542648, 0.0 ] } },
{ "type": "Feature", "properties": { "Name": "WHITIANGA", "Description": "<img src=\"http:\/\/chart.apis.google.com\/chart?chst=d_bubble_text_small&chld=bbT|900|FFFFFF|000000\" alt=\"900\"\/><img src=\"http:\/\/chart.apis.google.com\/chart?chst=d_bubble_text_small&chld=bbT|2100|FFFFFF|000000\" alt=\"2100\"\/>" }, "geometry": { "type": "Point", "coordinates": [ 175.737230899999986, -36.7831716, 0.0 ] } },
{ "type": "Feature", "properties": { "Name": "WILLIS STREET", "Description": "<img src=\"http:\/\/chart.apis.google.com\/chart?chst=d_bubble_text_small&chld=bbT|900|FFFFFF|000000\" alt=\"900\"\/>" }, "geometry": { "type": "Point", "coordinates": [ 174.769796, -41.2958624, 0.0 ] } },
{ "type": "Feature", "properties": { "Name": "WIRI", "Description": "<img src=\"http:\/\/chart.apis.google.com\/chart?chst=d_bubble_text_small&chld=bbT|900|FFFFFF|000000\" alt=\"900\"\/><img src=\"http:\/\/chart.apis.google.com\/chart?chst=d_bubble_text_small&chld=bbT|2100|FFFFFF|000000\" alt=\"2100\"\/>" }, "geometry": { "type": "Point", "coordinates": [ 174.8589546, -37.0053449, 0.0 ] } },
{ "type": "Feature", "properties": { "Name": "WOODHILL", "Description": "<img src=\"http:\/\/chart.apis.google.com\/chart?chst=d_bubble_text_small&chld=bbT|900|FFFFFF|000000\" alt=\"900\"\/>" }, "geometry": { "type": "Point", "coordinates": [ 174.4403886, -36.769385, 0.0 ] } },
{ "type": "Feature", "properties": { "Name": "WOOLSTON", "Description": "<img src=\"http:\/\/chart.apis.google.com\/chart?chst=d_bubble_text_small&chld=bbT|2100|FFFFFF|000000\" alt=\"2100\"\/>" }, "geometry": { "type": "Point", "coordinates": [ 172.681765899999988, -43.5605072, 0.0 ] } },
{ "type": "Feature", "properties": { "Name": "ERICSSON STADIUM", "Description": "<img src=\"http:\/\/chart.apis.google.com\/chart?chst=d_bubble_text_small&chld=bbT|900|FFFFFF|000000\" alt=\"900\"\/><img src=\"http:\/\/chart.apis.google.com\/chart?chst=d_bubble_text_small&chld=bbT|2100|FFFFFF|000000\" alt=\"2100\"\/>" }, "geometry": { "type": "Point", "coordinates": [ 174.8105895, -36.9178397, 0.0 ] } },
{ "type": "Feature", "properties": { "Name": "WOLVERTON", "Description": "<img src=\"http:\/\/chart.apis.google.com\/chart?chst=d_bubble_text_small&chld=bbT|900|FFFFFF|000000\" alt=\"900\"\/>" }, "geometry": { "type": "Point", "coordinates": [ 174.6896156, -36.9127132, 0.0 ] } },
{ "type": "Feature", "properties": { "Name": "MANGAWEKA", "Description": "<img src=\"http:\/\/chart.apis.google.com\/chart?chst=d_bubble_text_small&chld=bbT|900|FFFFFF|000000\" alt=\"900\"\/>" }, "geometry": { "type": "Point", "coordinates": [ 175.7878954, -39.8009052, 0.0 ] } },
{ "type": "Feature", "properties": { "Name": "LAKE ROTOITI", "Description": "<img src=\"http:\/\/chart.apis.google.com\/chart?chst=d_bubble_text_small&chld=bbT|900|FFFFFF|000000\" alt=\"900\"\/>" }, "geometry": { "type": "Point", "coordinates": [ 176.397473100000013, -38.0435774, 0.0 ] } },
{ "type": "Feature", "properties": { "Name": "KAIKORAI VALLEY", "Description": "<img src=\"http:\/\/chart.apis.google.com\/chart?chst=d_bubble_text_small&chld=bbT|2100|FFFFFF|000000\" alt=\"2100\"\/>" }, "geometry": { "type": "Point", "coordinates": [ 170.4539021, -45.8753836, 0.0 ] } },
{ "type": "Feature", "properties": { "Name": "HIMATANGI", "Description": "<img src=\"http:\/\/chart.apis.google.com\/chart?chst=d_bubble_text_small&chld=bbT|900|FFFFFF|000000\" alt=\"900\"\/>" }, "geometry": { "type": "Point", "coordinates": [ 175.3322192, -40.3445157, 0.0 ] } },
{ "type": "Feature", "properties": { "Name": "GREENLANE EXPO CENTRE", "Description": "<img src=\"http:\/\/chart.apis.google.com\/chart?chst=d_bubble_text_small&chld=bbT|900|FFFFFF|000000\" alt=\"900\"\/><img src=\"http:\/\/chart.apis.google.com\/chart?chst=d_bubble_text_small&chld=bbT|2100|FFFFFF|000000\" alt=\"2100\"\/>" }, "geometry": { "type": "Point", "coordinates": [ 174.7796459, -36.8931203, 0.0 ] } },
{ "type": "Feature", "properties": { "Name": "HUKERENUI", "Description": "<img src=\"http:\/\/chart.apis.google.com\/chart?chst=d_bubble_text_small&chld=bbT|900|FFFFFF|000000\" alt=\"900\"\/>" }, "geometry": { "type": "Point", "coordinates": [ 174.199501199999986, -35.5368851, 0.0 ] } },
{ "type": "Feature", "properties": { "Name": "CLINTON VODAFONE", "Description": "<img src=\"http:\/\/chart.apis.google.com\/chart?chst=d_bubble_text_small&chld=bbT|900|FFFFFF|000000\" alt=\"900\"\/>" }, "geometry": { "type": "Point", "coordinates": [ 169.371684499999986, -46.2372577, 0.0 ] } },
{ "type": "Feature", "properties": { "Name": "FAIRLIE", "Description": "<img src=\"http:\/\/chart.apis.google.com\/chart?chst=d_bubble_text_small&chld=bbT|900|FFFFFF|000000\" alt=\"900\"\/>" }, "geometry": { "type": "Point", "coordinates": [ 170.8709689, -44.0463301, 0.0 ] } },
{ "type": "Feature", "properties": { "Name": "GRETA VALLEY", "Description": "<img src=\"http:\/\/chart.apis.google.com\/chart?chst=d_bubble_text_small&chld=bbT|900|FFFFFF|000000\" alt=\"900\"\/>" }, "geometry": { "type": "Point", "coordinates": [ 173.1150357, -42.9263214, 0.0 ] } },
{ "type": "Feature", "properties": { "Name": "HOKITIKA", "Description": "<img src=\"http:\/\/chart.apis.google.com\/chart?chst=d_bubble_text_small&chld=bbT|900|FFFFFF|000000\" alt=\"900\"\/>" }, "geometry": { "type": "Point", "coordinates": [ 170.9782794, -42.7102829, 0.0 ] } },
{ "type": "Feature", "properties": { "Name": "INVERCARGILL SOUTH", "Description": "<img src=\"http:\/\/chart.apis.google.com\/chart?chst=d_bubble_text_small&chld=bbT|2100|FFFFFF|000000\" alt=\"2100\"\/>" }, "geometry": { "type": "Point", "coordinates": [ 168.3610496, -46.4363687, 0.0 ] } },
{ "type": "Feature", "properties": { "Name": "KAIIWI LAKES", "Description": "<img src=\"http:\/\/chart.apis.google.com\/chart?chst=d_bubble_text_small&chld=bbT|900|FFFFFF|000000\" alt=\"900\"\/>" }, "geometry": { "type": "Point", "coordinates": [ 173.6933529, -35.8149691, 0.0 ] } },
{ "type": "Feature", "properties": { "Name": "LAKE KARAPIRO", "Description": "<img src=\"http:\/\/chart.apis.google.com\/chart?chst=d_bubble_text_small&chld=bbT|900|FFFFFF|000000\" alt=\"900\"\/>" }, "geometry": { "type": "Point", "coordinates": [ 175.5988961, -37.9674913, 0.0 ] } },
{ "type": "Feature", "properties": { "Name": "MURUPARA", "Description": "<img src=\"http:\/\/chart.apis.google.com\/chart?chst=d_bubble_text_small&chld=bbT|900|FFFFFF|000000\" alt=\"900\"\/>" }, "geometry": { "type": "Point", "coordinates": [ 176.69603, -38.4986319, 0.0 ] } },
{ "type": "Feature", "properties": { "Name": "NEW BRIGHTON", "Description": "<img src=\"http:\/\/chart.apis.google.com\/chart?chst=d_bubble_text_small&chld=bbT|2100|FFFFFF|000000\" alt=\"2100\"\/>" }, "geometry": { "type": "Point", "coordinates": [ 172.7277966, -43.5075214, 0.0 ] } },
{ "type": "Feature", "properties": { "Name": "NORTH HARBOUR STADIUM", "Description": "<img src=\"http:\/\/chart.apis.google.com\/chart?chst=d_bubble_text_small&chld=bbT|900|FFFFFF|000000\" alt=\"900\"\/><img src=\"http:\/\/chart.apis.google.com\/chart?chst=d_bubble_text_small&chld=bbT|1800|FFFFFF|000000\" alt=\"1800\"\/><img src=\"http:\/\/chart.apis.google.com\/chart?chst=d_bubble_text_small&chld=bbT|2100|FFFFFF|000000\" alt=\"2100\"\/>" }, "geometry": { "type": "Point", "coordinates": [ 174.6992378, -36.7267862, 0.0 ] } },
{ "type": "Feature", "properties": { "Name": "ONETANGI", "Description": "<img src=\"http:\/\/chart.apis.google.com\/chart?chst=d_bubble_text_small&chld=bbT|900|FFFFFF|000000\" alt=\"900\"\/>" }, "geometry": { "type": "Point", "coordinates": [ 175.108034800000013, -36.7673284, 0.0 ] } },
{ "type": "Feature", "properties": { "Name": "TAHUNA", "Description": "<img src=\"http:\/\/chart.apis.google.com\/chart?chst=d_bubble_text_small&chld=bbT|900|FFFFFF|000000\" alt=\"900\"\/>" }, "geometry": { "type": "Point", "coordinates": [ 175.469838, -37.537721, 0.0 ] } },
{ "type": "Feature", "properties": { "Name": "TIRAU TOWNSHIP", "Description": "<img src=\"http:\/\/chart.apis.google.com\/chart?chst=d_bubble_text_small&chld=bbT|900|FFFFFF|000000\" alt=\"900\"\/>" }, "geometry": { "type": "Point", "coordinates": [ 175.7710049, -37.9714775, 0.0 ] } },
{ "type": "Feature", "properties": { "Name": "TAMIHANA", "Description": "<img src=\"http:\/\/chart.apis.google.com\/chart?chst=d_bubble_text_small&chld=bbT|900|FFFFFF|000000\" alt=\"900\"\/>" }, "geometry": { "type": "Point", "coordinates": [ 175.6884217, -37.7481113, 0.0 ] } },
{ "type": "Feature", "properties": { "Name": "NEWLANDS", "Description": "<img src=\"http:\/\/chart.apis.google.com\/chart?chst=d_bubble_text_small&chld=bbT|900|FFFFFF|000000\" alt=\"900\"\/><img src=\"http:\/\/chart.apis.google.com\/chart?chst=d_bubble_text_small&chld=bbT|2100|FFFFFF|000000\" alt=\"2100\"\/>" }, "geometry": { "type": "Point", "coordinates": [ 174.8215481, -41.2239068, 0.0 ] } },
{ "type": "Feature", "properties": { "Name": "QUEENSTOWN CENTRAL", "Description": "<img src=\"http:\/\/chart.apis.google.com\/chart?chst=d_bubble_text_small&chld=bbT|2100|FFFFFF|000000\" alt=\"2100\"\/>" }, "geometry": { "type": "Point", "coordinates": [ 168.664853599999986, -45.0322678, 0.0 ] } },
{ "type": "Feature", "properties": { "Name": "HAPPY VALLEY", "Description": "<img src=\"http:\/\/chart.apis.google.com\/chart?chst=d_bubble_text_small&chld=bbT|900|FFFFFF|000000\" alt=\"900\"\/><img src=\"http:\/\/chart.apis.google.com\/chart?chst=d_bubble_text_small&chld=bbT|2100|FFFFFF|000000\" alt=\"2100\"\/>" }, "geometry": { "type": "Point", "coordinates": [ 174.7554049, -41.3384116, 0.0 ] } },
{ "type": "Feature", "properties": { "Name": "PUKEKOHE OUTER", "Description": "<img src=\"http:\/\/chart.apis.google.com\/chart?chst=d_bubble_text_small&chld=bbT|900|FFFFFF|000000\" alt=\"900\"\/>" }, "geometry": { "type": "Point", "coordinates": [ 174.769765299999989, -37.252901, 0.0 ] } },
{ "type": "Feature", "properties": { "Name": "WAIUKU", "Description": "<img src=\"http:\/\/chart.apis.google.com\/chart?chst=d_bubble_text_small&chld=bbT|900|FFFFFF|000000\" alt=\"900\"\/>" }, "geometry": { "type": "Point", "coordinates": [ 174.7268702, -37.2508926, 0.0 ] } },
{ "type": "Feature", "properties": { "Name": "GLEN EDEN", "Description": "<img src=\"http:\/\/chart.apis.google.com\/chart?chst=d_bubble_text_small&chld=bbT|900|FFFFFF|000000\" alt=\"900\"\/>" }, "geometry": { "type": "Point", "coordinates": [ 174.6490134, -36.9204506, 0.0 ] } },
{ "type": "Feature", "properties": { "Name": "HAITAITAI", "Description": "<img src=\"http:\/\/chart.apis.google.com\/chart?chst=d_bubble_text_small&chld=bbT|900|FFFFFF|000000\" alt=\"900\"\/><img src=\"http:\/\/chart.apis.google.com\/chart?chst=d_bubble_text_small&chld=bbT|2100|FFFFFF|000000\" alt=\"2100\"\/>" }, "geometry": { "type": "Point", "coordinates": [ 174.7939398, -41.3053981, 0.0 ] } },
{ "type": "Feature", "properties": { "Name": "TINWALD", "Description": "<img src=\"http:\/\/chart.apis.google.com\/chart?chst=d_bubble_text_small&chld=bbT|900|FFFFFF|000000\" alt=\"900\"\/>" }, "geometry": { "type": "Point", "coordinates": [ 171.7400747, -43.9060249, 0.0 ] } },
{ "type": "Feature", "properties": { "Name": "AHIWEKA", "Description": "<img src=\"http:\/\/chart.apis.google.com\/chart?chst=d_bubble_text_small&chld=bbT|1800|FFFFFF|000000\" alt=\"1800\"\/>" }, "geometry": { "type": "Point", "coordinates": [ 176.3394557, -40.1845645, 0.0 ] } },